taxAssessedValue,isUnmappable,datePriceChanged,longitude,bedrooms,providerListingID,listing_sub_type,isPremierBuilder,lotAreaValue,priceChange,latitude,zpid,price,priceForHDP,rentZestimate,newConstructionType,isPreforeclosureAuction,daysOnZillow,dateSold,shouldHighlight,isNonOwnerOccupied,imgSrc,isZillowOwned,homeType,homeStatus,state,streetAddress,zipcode,homeStatusForHDP,livingArea,isFeatured,country,unit,lotAreaUnit,zestimate,city,videoCount,isShowcaseListing,bathrooms,isRentalWithBasePrice,currency
1303000.0,False,,-122.28529,4.0,,{},False,5815.26,,47.67776,48658938,1437000.0,1437000.0,5400,,False,-1,1693551600000,False,True,https://photos.zillowstatic.com/fp/c55f2048705fdb51fbc60728d67dcb5a-p_e.jpg,False,SINGLE_FAMILY,RECENTLY_SOLD,WA,6803 40th Avenue NE,98115,RECENTLY_SOLD,2930.0,False,USA,,sqft,1430100,Seattle,,False,4.0,,USD
360000.0,False,,-122.34862,1.0,,{},False,,,47.615433,48662265,450000.0,450000.0,2225,,False,-1,1693551600000,False,True,https://photos.zillowstatic.com/fp/b4da32855ce7f3e86c69114c7a20d932-p_e.jpg,False,CONDO,RECENTLY_SOLD,WA,121 Vine Street UNIT 1104,98121,RECENTLY_SOLD,675.0,False,USA,Unit 1104,,422500,Seattle,,False,1.0,,USD
830000.0,False,,-122.38101,3.0,,{},False,5749.92,,47.56719,48697529,1001000.0,1001000.0,4134,,False,-1,1693551600000,False,True,https://photos.zillowstatic.com/fp/3dbe00df7f8c392c6a05ca4313115135-p_e.jpg,False,SINGLE_FAMILY,RECENTLY_SOLD,WA,4042 39th Avenue SW,98116,RECENTLY_SOLD,2250.0,False,USA,,sqft,882800,Seattle,,False,2.0,,USD
4045000.0,False,,-122.406654,4.0,,{},False,9722.592,,47.643513,48702935,4760000.0,4760000.0,9126,,False,-1,1693551600000,False,True,https://photos.zillowstatic.com/fp/96b2162e5990ce4962173a803c7b70ea-p_e.jpg,False,SINGLE_FAMILY,RECENTLY_SOLD,WA,2608 39th Avenue W,98199,RECENTLY_SOLD,5760.0,False,USA,,sqft,5783300,Seattle,,False,4.0,,USD
2070000.0,False,,-122.39363,4.0,,{},False,5000.688,,47.632793,48774202,2500000.0,2500000.0,6340,,False,-1,1693551600000,False,True,https://photos.zillowstatic.com/fp/3abc4d5ac7f8222e1c983a492bbde7c3-p_e.jpg,False,SINGLE_FAMILY,RECENTLY_SOLD,WA,2809 W Eaton Street,98199,RECENTLY_SOLD,4400.0,False,USA,,sqft,2466600,Seattle,,False,5.0,,USD
633000.0,False,,-122.38557,3.0,,{},False,5292.54,,47.530212,48840880,530000.0,530000.0,3994,,False,-1,1693551600000,False,True,https://photos.zillowstatic.com/fp/cd41d791236fc92e6b0b0c73847a3c9a-p_e.jpg,False,SINGLE_FAMILY,RECENTLY_SOLD,WA,4118 SW Southern Street,98136,RECENTLY_SOLD,2769.0,False,USA,,sqft,602800,Seattle,,False,2.0,,USD
673000.0,False,,-122.35251,2.0,,{},False,6769.224,,47.51969,48859061,580000.0,580000.0,3170,,False,-1,1693551600000,False,True,https://photos.zillowstatic.com/fp/8f7d2aef7c43a3fd8a649464b009c496-p_e.jpg,False,SINGLE_FAMILY,RECENTLY_SOLD,WA,9244 14th Avenue SW,98106,RECENTLY_SOLD,2020.0,False,USA,,sqft,589500,Seattle,,False,2.0,,USD
599000.0,False,,-122.26208,4.0,,{},False,9374.112,,47.498634,48866968,660000.0,660000.0,3230,,False,-1,1693551600000,False,True,https://photos.zillowstatic.com/fp/0f7e5d8102f8d7f267bb909102eb9206-p_e.jpg,False,SINGLE_FAMILY,RECENTLY_SOLD,WA,11714 Luther Avenue S,98178,RECENTLY_SOLD,2220.0,False,USA,,sqft,745200,Seattle,,False,2.0,,USD
1747000.0,False,,-122.33592,6.0,,{},False,6838.92,,47.653316,48919764,1770000.0,1770000.0,1994,,False,-1,1693551600000,False,True,https://photos.zillowstatic.com/fp/2285c03522d6cc17d52d5b921d8ba455-p_e.jpg,False,MULTI_FAMILY,RECENTLY_SOLD,WA,1802 N 38th Street,98103,RECENTLY_SOLD,3448.0,False,USA,,sqft,1768000,Seattle,,False,3.0,,USD
831000.0,False,,-122.32706,2.0,,{},False,1001.88,,47.655437,48927950,768500.0,768500.0,3499,,False,-1,1693551600000,False,True,https://photos.zillowstatic.com/fp/5094912620179b6a6dbe3c2d2fd2082a-p_e.jpg,False,TOWNHOUSE,RECENTLY_SOLD,WA,3943 2nd Avenue NE,98105,RECENTLY_SOLD,1087.0,False,USA,,sqft,785200,Seattle,,False,2.0,,USD
2236000.0,False,,-122.37735,4.0,,{},False,6198.588,,47.57871,48966185,2775000.0,2775000.0,7914,,False,-1,1693551600000,False,True,https://photos.zillowstatic.com/fp/623ae05fd7ce78d036bdfe348a4c1f75-p_e.jpg,False,SINGLE_FAMILY,RECENTLY_SOLD,WA,2717 36th Avenue SW,98126,RECENTLY_SOLD,4790.0,False,USA,,sqft,2881500,Seattle,,False,5.0,,USD
1542000.0,False,,-122.298416,4.0,,{},False,6037.416,,47.694244,48972454,1540000.0,1540000.0,5195,,False,-1,1693551600000,False,True,https://photos.zillowstatic.com/fp/1d01f4afa1f0b2f42b284e2e6775e8e5-p_e.jpg,False,SINGLE_FAMILY,RECENTLY_SOLD,WA,9010 27th Avenue NE,98115,RECENTLY_SOLD,2990.0,False,USA,,sqft,1541200,Seattle,,False,3.0,,USD
974000.0,False,,-122.31764,2.0,,{},False,1311.156,,47.621834,49011319,1085000.0,1085000.0,4049,,False,-1,1693551600000,False,True,https://photos.zillowstatic.com/fp/6abb477952f318c985adac6599d83113-p_e.jpg,False,TOWNHOUSE,RECENTLY_SOLD,WA,1101 E HARRISON Street,98102,RECENTLY_SOLD,1540.0,False,USA,,sqft,1088000,Seattle,,False,3.0,,USD
964000.0,False,,-122.31361,4.0,,{},False,3798.432,,47.68838,49012077,1239500.0,1239500.0,4900,,False,-1,1693551600000,False,True,https://photos.zillowstatic.com/fp/abdc814ab4b8757790c17b5d81f63d27-p_e.jpg,False,SINGLE_FAMILY,RECENTLY_SOLD,WA,8057 14th Avenue NE,98115,RECENTLY_SOLD,2940.0,False,USA,,sqft,1269100,Seattle,,False,3.0,,USD
296000.0,False,,-122.35895,1.0,,{},False,1.0,,47.624035,49105671,360000.0,360000.0,1898,,False,-1,1693551600000,False,True,https://photos.zillowstatic.com/fp/ef2d7bd1c43eba3b77c02e01714c7686-p_e.jpg,False,CONDO,RECENTLY_SOLD,WA,520 2nd Avenue W UNIT 307,98119,RECENTLY_SOLD,569.0,False,USA,Apt 307,sqft,353700,Seattle,,False,1.0,,USD
928000.0,False,,-122.36789,3.0,,{},False,4098.996,,47.668938,49127497,860000.0,860000.0,3495,,False,-1,1693551600000,False,True,https://photos.zillowstatic.com/fp/aaec9a6f45d6122b76555e4d1d7d0f2c-p_e.jpg,False,SINGLE_FAMILY,RECENTLY_SOLD,WA,836 NW Market Street,98107,RECENTLY_SOLD,2150.0,False,USA,,sqft,858900,Seattle,,False,1.0,,USD
846000.0,False,,-122.2904,4.0,,{},False,7801.596,,47.70281,49135156,910000.0,910000.0,3934,,False,-1,1693551600000,False,True,https://photos.zillowstatic.com/fp/8d8a2cdf1490db5e962edf4122fb0432-p_e.jpg,False,SINGLE_FAMILY,RECENTLY_SOLD,WA,10058 35th Avenue NE,98125,RECENTLY_SOLD,2090.0,False,USA,,sqft,922600,Seattle,,False,2.0,,USD
623000.0,False,,-122.38704,3.0,,{},False,1341.648,,47.5722,72500787,775000.0,775000.0,3599,,False,-1,1693551600000,False,True,https://photos.zillowstatic.com/fp/b0131555b00b611aea0617e6a246bd0f-p_e.jpg,False,TOWNHOUSE,RECENTLY_SOLD,WA,3457 California Avenue SW,98116,RECENTLY_SOLD,1650.0,False,USA,,sqft,789700,Seattle,,False,3.0,,USD
,False,,-122.30164,2.0,,{},False,,,47.5853,2056016172,584990.0,584990.0,,,False,-1,1693551600000,False,True,https://photos.zillowstatic.com/fp/f3bd193ec9434fcd09c2dd8f2aaa3009-p_e.jpg,False,TOWNHOUSE,RECENTLY_SOLD,WA,2018 24th Avenue S,98144,RECENTLY_SOLD,1192.0,False,USA,,,586700,Seattle,,False,2.0,,USD
,False,,-122.374725,3.0,,{},False,1376.496,,47.678265,2056043560,857500.0,857500.0,3599,,False,-1,1693551600000,False,True,https://photos.zillowstatic.com/fp/9715d342cb8797768a6867bf0decd0d4-p_e.jpg,False,TOWNHOUSE,RECENTLY_SOLD,WA,6714 Alonzo Avenue NW UNIT A,98117,RECENTLY_SOLD,1460.0,False,USA,# A,sqft,814900,Seattle,,False,3.0,,USD
,False,,-122.30143,3.0,,{},False,,,47.584766,2057636320,770000.0,770000.0,1987,,False,-1,1693551600000,False,True,https://photos.zillowstatic.com/fp/f3bd193ec9434fcd09c2dd8f2aaa3009-p_e.jpg,False,TOWNHOUSE,RECENTLY_SOLD,WA,2024 24th Avenue S,98144,RECENTLY_SOLD,1670.0,False,USA,,,767300,Seattle,,False,3.0,,USD
,False,,-122.35528,3.0,,{},False,2042.964,,47.70722,2070961937,690000.0,690000.0,3095,,False,-1,1693551600000,False,True,https://photos.zillowstatic.com/fp/9dca0d07e391c20992b2c20353841ba6-p_e.jpg,False,TOWNHOUSE,RECENTLY_SOLD,WA,10710 Greenwood Avenue N UNIT D,98133,RECENTLY_SOLD,1237.0,False,USA,# D,sqft,693200,Seattle,,False,2.0,,USD
,False,,-122.29084,3.0,,{},False,1311.156,,47.682003,2099725852,950000.0,950000.0,4013,,False,-1,1693551600000,False,True,https://photos.zillowstatic.com/fp/e01fd71d7d67097c83a4b808d30be9ed-p_e.jpg,False,SINGLE_FAMILY,RECENTLY_SOLD,WA,7325 35th Avenue NE UNIT A,98115,RECENTLY_SOLD,1791.0,False,USA,# A,sqft,939900,Seattle,,False,2.0,,USD
1025000.0,False,,-122.36948,3.0,,{},False,5000.688,,47.67258,48654383,1217500.0,1217500.0,3496,,False,-1,1693465200000,False,True,https://photos.zillowstatic.com/fp/2364800cdaeaa8f50ab4ae20ee6fd728-p_e.jpg,False,SINGLE_FAMILY,RECENTLY_SOLD,WA,914 NW 60th Street,98107,RECENTLY_SOLD,1286.0,False,USA,,sqft,1153000,Seattle,,False,2.0,,USD
608000.0,False,,-122.25461,3.0,,{},False,6499.152,,47.506905,48659818,675000.0,675000.0,3049,,False,-1,1693465200000,False,True,https://photos.zillowstatic.com/fp/4e53459cf13f064744dcd83e51cd82da-p_e.jpg,False,SINGLE_FAMILY,RECENTLY_SOLD,WA,10442 63rd Avenue S,98178,RECENTLY_SOLD,1660.0,False,USA,,sqft,688200,Seattle,,False,2.0,,USD
1335000.0,False,,-122.350204,5.0,,{},False,5000.688,,47.637154,48690112,1310765.0,1310765.0,6199,,False,-1,1693465200000,False,True,https://photos.zillowstatic.com/fp/faf223806c7c10810b457bcdef4a68cd-p_e.jpg,False,SINGLE_FAMILY,RECENTLY_SOLD,WA,361 Crockett Street,98109,RECENTLY_SOLD,3100.0,False,USA,,sqft,1348500,Seattle,,False,3.0,,USD
2783000.0,False,,-122.4051,5.0,,{},False,7422.624,,47.666264,48700969,3400000.0,3400000.0,6709,,False,-1,1693465200000,False,True,https://photos.zillowstatic.com/fp/084bd781f2c5d60f5aa22e826c9ebb19-p_e.jpg,False,SINGLE_FAMILY,RECENTLY_SOLD,WA,3636 W Commodore Way,98199,RECENTLY_SOLD,4108.0,False,USA,,sqft,2629500,Seattle,,False,4.0,,USD
780000.0,False,,-122.366325,4.0,,{},False,5423.22,,47.696648,48764450,825000.0,825000.0,3900,,False,-1,1693465200000,False,True,https://photos.zillowstatic.com/fp/5b827de05d7b74dbe099eca02f75c771-p_e.jpg,False,SINGLE_FAMILY,RECENTLY_SOLD,WA,9219 8th Avenue NW,98117,RECENTLY_SOLD,1830.0,False,USA,,sqft,775100,Seattle,,False,2.0,,USD
866000.0,False,,-122.38094,3.0,,{},False,5000.688,,47.674053,48823150,1025000.0,1025000.0,4248,,False,-1,1693465200000,False,True,https://photos.zillowstatic.com/fp/daedc569b61137defcd75c62c47a89be-p_e.jpg,False,SINGLE_FAMILY,RECENTLY_SOLD,WA,1746 NW 62nd Street,98107,RECENTLY_SOLD,2160.0,False,USA,,sqft,1048800,Seattle,,False,2.0,,USD
668000.0,False,,-122.38436,3.0,,{},False,1999.404,,47.6726,48823340,772500.0,772500.0,3194,,False,-1,1693465200000,False,True,https://photos.zillowstatic.com/fp/d706a0ed10b0b18d4291e11d208435e2-p_e.jpg,False,SINGLE_FAMILY,RECENTLY_SOLD,WA,2052 NW 60th Street,98107,RECENTLY_SOLD,1280.0,False,USA,,sqft,660900,Seattle,,False,1.0,,USD
566000.0,False,,-122.25215,3.0,,{},False,6899.904,,47.50516,48839891,580000.0,580000.0,2998,,False,-1,1693465200000,False,True,https://photos.zillowstatic.com/fp/a07690e4fe0f982be0919b8c3a894ffc-p_e.jpg,False,SINGLE_FAMILY,RECENTLY_SOLD,WA,6501 S Hazel Street,98178,RECENTLY_SOLD,1920.0,False,USA,,sqft,520900,Seattle,,False,1.0,,USD
967000.0,False,,-122.287186,5.0,,{},False,7710.12,,47.698765,48873664,1050000.0,1050000.0,3949,,False,-1,1693465200000,False,True,https://photos.zillowstatic.com/fp/60ef1eef42f1d7ffd424d376cb9dd3a9-p_e.jpg,False,SINGLE_FAMILY,RECENTLY_SOLD,WA,3818 NE 96th Street,98115,RECENTLY_SOLD,2600.0,False,USA,,sqft,1078500,Seattle,,False,2.0,,USD
847000.0,False,,-122.2958,3.0,,{},False,0.3656,,47.714363,48875686,730000.0,730000.0,3150,,False,-1,1693465200000,False,True,https://photos.zillowstatic.com/fp/0c089188349cff751ddd0d077e6756f5-p_e.jpg,False,SINGLE_FAMILY,RECENTLY_SOLD,WA,11825 31st Place NE,98125,RECENTLY_SOLD,1320.0,False,USA,,acres,771500,Seattle,,False,2.0,,USD
534000.0,False,,-122.29992,2.0,,{},False,5279.472,,47.714577,48875694,625000.0,625000.0,2500,,False,-1,1693465200000,False,True,https://photos.zillowstatic.com/fp/db7b713a6a718eb4479c746817752349-p_e.jpg,False,SINGLE_FAMILY,RECENTLY_SOLD,WA,11716 26th Avenue NE,98125,RECENTLY_SOLD,800.0,False,USA,,sqft,640200,Seattle,,False,1.0,,USD
762000.0,False,,-122.39819,3.0,,{},False,5501.628,,47.581017,48877371,1025000.0,1025000.0,4250,,False,-1,1693465200000,False,True,https://photos.zillowstatic.com/fp/bfd5fde9dbc45f726f5fe02031442279-p_e.jpg,False,SINGLE_FAMILY,RECENTLY_SOLD,WA,5119 SW Waite Street,98116,RECENTLY_SOLD,2000.0,False,USA,,sqft,1029500,Seattle,,False,2.0,,USD
942000.0,False,,-122.37035,3.0,,{},False,8102.16,,47.72358,48884423,932000.0,932000.0,3829,,False,-1,1693465200000,False,True,https://photos.zillowstatic.com/fp/b9de816d218c97a64e3bd4aa0b4da491-p_e.jpg,False,SINGLE_FAMILY,RECENTLY_SOLD,WA,1018 NW 130th Street,98177,RECENTLY_SOLD,1779.0,False,USA,,sqft,903400,Seattle,,False,2.0,,USD
548000.0,False,,-122.27689,2.0,,{},False,7618.644,,47.542706,48894614,560000.0,560000.0,2824,,False,-1,1693465200000,False,True,https://photos.zillowstatic.com/fp/e8476370c529df823de8c8d4ef6ddb90-p_e.jpg,False,SINGLE_FAMILY,RECENTLY_SOLD,WA,4424 S Holly Street,98118,RECENTLY_SOLD,1620.0,False,USA,,sqft,511200,Seattle,,False,1.0,,USD
882000.0,False,,-122.284966,4.0,,{},False,7318.08,,47.71044,48919171,1025000.0,1025000.0,3949,,False,-1,1693465200000,False,True,https://photos.zillowstatic.com/fp/e98e1cf8da9aef9f271d7a6bdb7101c1-p_e.jpg,False,SINGLE_FAMILY,RECENTLY_SOLD,WA,11310 40th Avenue NE,98125,RECENTLY_SOLD,2460.0,False,USA,,sqft,1124100,Seattle,,False,3.0,,USD
1142000.0,False,,-122.27997,3.0,,{},False,3998.808,,47.635612,48936969,935000.0,935000.0,4595,,False,-1,1693465200000,False,True,https://photos.zillowstatic.com/fp/2a7ff9d97a5e1544c2f174ce6bd43063-p_e.jpg,False,SINGLE_FAMILY,RECENTLY_SOLD,WA,1829 41st Avenue E,98112,RECENTLY_SOLD,1960.0,False,USA,,sqft,1162500,Seattle,,False,2.0,,USD
788000.0,False,,-122.31978,2.0,,{},False,6817.14,,47.697926,48946779,860000.0,860000.0,3095,,False,-1,1693465200000,False,True,https://photos.zillowstatic.com/fp/e7e0101a007a69b6e7d25b6e41218b99-p_e.jpg,False,SINGLE_FAMILY,RECENTLY_SOLD,WA,808 NE 95th Street,98115,RECENTLY_SOLD,1270.0,False,USA,,sqft,791200,Seattle,,False,2.0,,USD
634000.0,False,,-122.28261,4.0,,{},False,3001.284,,47.612762,48957352,1800000.0,1800000.0,7139,,False,-1,1693465200000,False,True,https://photos.zillowstatic.com/fp/71f3eb6de85b7be223693d488cee165f-p_e.jpg,False,SINGLE_FAMILY,RECENTLY_SOLD,WA,1423 Madrona Drive,98122,RECENTLY_SOLD,3213.0,False,USA,,sqft,816900,Seattle,,False,4.0,,USD
838000.0,False,,-122.349106,5.0,,{},False,6851.988,,47.717834,48984596,780000.0,780000.0,4498,,False,-1,1693465200000,False,True,https://photos.zillowstatic.com/fp/930b83a645360d96249d2577aec4432a-p_e.jpg,False,SINGLE_FAMILY,RECENTLY_SOLD,WA,800 N 122nd Street,98133,RECENTLY_SOLD,2580.0,False,USA,,sqft,919400,Seattle,,False,3.0,,USD
981000.0,False,,-122.29055,4.0,,{},False,3998.808,,47.58446,49004890,650000.0,650000.0,3900,,False,-1,1693465200000,False,True,https://photos.zillowstatic.com/fp/68eba32ab16945654e1a927d73e7ae78-p_e.jpg,False,SINGLE_FAMILY,RECENTLY_SOLD,WA,2020 33rd Avenue S,98144,RECENTLY_SOLD,1810.0,False,USA,,sqft,1017000,Seattle,,False,2.0,,USD
812000.0,False,,-122.403206,2.0,,{},False,5998.212,,47.65338,49009516,1068000.0,1068000.0,3599,,False,-1,1693465200000,False,True,https://photos.zillowstatic.com/fp/21ce3db27095efe553bee247332398a2-p_e.jpg,False,SINGLE_FAMILY,RECENTLY_SOLD,WA,3636 36th Avenue W,98199,RECENTLY_SOLD,1380.0,False,USA,,sqft,1062300,Seattle,,False,2.0,,USD
2095000.0,False,,-122.316605,5.0,,{},False,3998.808,,47.63746,49096562,1800000.0,1800000.0,5982,,False,-1,1693465200000,False,True,https://photos.zillowstatic.com/fp/4fc27738a5fc91a38ba704e1a1ef8614-p_e.jpg,False,SINGLE_FAMILY,RECENTLY_SOLD,WA,1212 E Newton Street,98102,RECENTLY_SOLD,4390.0,False,USA,,sqft,2284000,Seattle,,False,5.0,,USD
534000.0,False,,-122.3456,1.0,,{},False,,,47.609818,49118011,675000.0,675000.0,1767,,False,-1,1693465200000,False,True,https://photos.zillowstatic.com/fp/913559c18c437ee6728b8942fbe5be1b-p_e.jpg,False,CONDO,RECENTLY_SOLD,WA,2000 Alaskan Way UNIT 442,98121,RECENTLY_SOLD,865.0,False,USA,Apt 442,,676500,Seattle,,False,1.0,,USD
868000.0,False,,-122.3191,2.0,,{},False,3811.5,,47.673878,49119891,727500.0,727500.0,2999,,False,-1,1693465200000,False,True,https://photos.zillowstatic.com/fp/fdb8d77719bd5048836b5c5941b6dedf-p_e.jpg,False,SINGLE_FAMILY,RECENTLY_SOLD,WA,6217 9th Avenue NE,98115,RECENTLY_SOLD,1190.0,False,USA,,sqft,780700,Seattle,,False,1.0,,USD
1730000.0,False,,-122.28599,3.0,,{},False,0.2658,,47.73266,49128855,1195000.0,1195000.0,4466,,False,-1,1693465200000,False,True,https://photos.zillowstatic.com/fp/ee678d1b8fc27c272eea3e3d8dba3bb4-p_e.jpg,False,SINGLE_FAMILY,RECENTLY_SOLD,WA,14331 40th Avenue NE,98125,RECENTLY_SOLD,3740.0,False,USA,,acres,1211900,Seattle,,False,5.0,,USD
482000.0,False,,-122.35475,2.0,,{},False,,,47.672165,49139743,492000.0,492000.0,1286,,False,-1,1693465200000,False,True,https://photos.zillowstatic.com/fp/8de8f9081b5408a85b51826ed2af89ed-p_e.jpg,False,CONDO,RECENTLY_SOLD,WA,5901 Phinney Avenue N UNIT 201,98103,RECENTLY_SOLD,783.0,False,USA,Apt 201,,491200,Seattle,,False,2.0,,USD
1702000.0,False,,-122.28491,3.0,,{'is_FSBA': True},False,5945.94,,47.60314,49147570,1850000.0,1850000.0,5485,,False,-1,1693465200000,False,True,https://photos.zillowstatic.com/fp/c3508e5fc4b0c2845124dad3585ff315-p_e.jpg,False,SINGLE_FAMILY,PENDING,WA,201 Lake Washington Blvd,98122,,2880.0,False,USA,,sqft,1876600,Seattle,,False,3.0,,USD
784000.0,False,,-122.25902,3.0,,{},False,5000.688,,47.51119,70578791,840000.0,840000.0,4994,,False,-1,1693465200000,False,True,https://photos.zillowstatic.com/fp/df35ccd702ffa30bc467ab21c4511939-p_e.jpg,False,SINGLE_FAMILY,RECENTLY_SOLD,WA,10014 59th Avenue S,98178,RECENTLY_SOLD,3050.0,False,USA,,sqft,854200,Seattle,,False,3.0,,USD
588000.0,False,,-122.28677,2.0,,{},False,1607.364,,47.55658,80127729,650000.0,650000.0,2997,,False,-1,1693465200000,False,True,https://photos.zillowstatic.com/fp/7c5de0318c263d76fd3e4157075d2800-p_e.jpg,False,TOWNHOUSE,RECENTLY_SOLD,WA,5013 37th Avenue S UNIT A,98118,RECENTLY_SOLD,1303.0,False,USA,# A,sqft,640000,Seattle,,False,2.0,,USD
374200.0,False,,-122.330315,3.0,,{},False,1206.612,,47.641136,241741203,1850000.0,1850000.0,3495,,False,-1,1693465200000,False,True,https://photos.zillowstatic.com/fp/7cb163b1437a068c47cb42898fc5171c-p_e.jpg,False,SINGLE_FAMILY,RECENTLY_SOLD,WA,2339 Fairview Avenue E UNIT H,98102,RECENTLY_SOLD,1197.0,False,USA,Slip H,sqft,,Seattle,,False,2.0,,USD
,False,,-122.318405,2.0,,{},False,1472.328,,47.69467,2056209315,795000.0,795000.0,2995,,False,-1,1693465200000,False,True,https://photos.zillowstatic.com/fp/8e3bfc2efd495bbbe7af509d5c5ac471-p_e.jpg,False,CONDO,RECENTLY_SOLD,WA,845 NE 91st Street UNIT B,98115,RECENTLY_SOLD,1124.0,False,USA,# B,sqft,773900,Seattle,,False,2.0,,USD
,False,,-122.37047,2.0,,{'is_FSBA': True},False,2134.44,,47.68688,2056570014,699999.0,699999.0,2850,,False,-1,1693465200000,False,True,https://photos.zillowstatic.com/fp/15bb9a235a63a3b6d62d56a0dbd2ad8a-p_e.jpg,False,SINGLE_FAMILY,PENDING,WA,1107 NW 80th St,98117,,950.0,False,USA,,sqft,693100,Seattle,,False,3.0,,USD
,False,,-122.4113,3.0,,{},False,1302.444,,47.574707,2056811428,799950.0,799950.0,3399,,False,-1,1693465200000,False,True,https://photos.zillowstatic.com/fp/5e0fb85d849f5add6359f5f1b93fb969-p_e.jpg,False,SINGLE_FAMILY,RECENTLY_SOLD,WA,3239 61st Avenue SW UNIT C,98116,RECENTLY_SOLD,1101.0,False,USA,# C,sqft,794400,Seattle,,False,2.0,,USD
,False,,-122.411,3.0,,{},False,1851.3,,47.574673,2056817447,1150000.0,1150000.0,4500,,False,-1,1693465200000,False,True,https://photos.zillowstatic.com/fp/fd2e141f375935bac7815b5ea9122c3b-p_e.jpg,False,SINGLE_FAMILY,RECENTLY_SOLD,WA,3239 61st Avenue SW UNIT A,98116,RECENTLY_SOLD,1848.0,False,USA,# A,sqft,1180800,Seattle,,False,4.0,,USD
,False,,-122.35603,2.0,,{},False,,,47.52784,2056832925,504900.0,504900.0,1351,,False,-1,1693465200000,False,True,https://photos.zillowstatic.com/fp/4169baaff1f4ad9c52ac5b9edb22f3f0-p_e.jpg,False,CONDO,RECENTLY_SOLD,WA,8412 17th Avenue SW UNIT 1,98106,RECENTLY_SOLD,727.0,False,USA,# 1,,498300,Seattle,,False,1.0,,USD
,False,,-122.292595,2.0,,{},False,1986.336,,47.69062,2056936380,720000.0,720000.0,2800,,False,-1,1693465200000,False,True,https://photos.zillowstatic.com/fp/48a68ddaa5aca2f7dcd935ae6da8f50e-p_e.jpg,False,SINGLE_FAMILY,RECENTLY_SOLD,WA,3221 NE 86th Street,98115,RECENTLY_SOLD,998.0,False,USA,,sqft,,Seattle,,False,3.0,,USD
,False,,-122.35349,2.0,,{},False,932.184,,47.522667,2057133801,510000.0,510000.0,2645,,False,-1,1693465200000,False,True,https://photos.zillowstatic.com/fp/512941b0cfd24d566674d4087eb0dada-p_e.jpg,False,TOWNHOUSE,RECENTLY_SOLD,WA,9006 15th Avenue SW UNIT B,98106,RECENTLY_SOLD,1000.0,False,USA,# B,sqft,505900,Seattle,,False,1.0,,USD
,False,,-122.32803,1.0,,{},False,,,47.60029,2061646173,379950.0,379950.0,1944,,False,-1,1693465200000,False,True,https://photos.zillowstatic.com/fp/e2278fa10dd1a19e011c49d2a253b01e-p_e.jpg,False,CONDO,RECENTLY_SOLD,WA,450 S Main Street UNIT 403,98104,RECENTLY_SOLD,569.0,False,USA,# 403,,381400,Seattle,,False,1.0,,USD
,False,,-122.31105,3.0,,{},False,810.216,,47.602192,2068049745,788000.0,788000.0,3499,,False,-1,1693465200000,False,True,https://photos.zillowstatic.com/fp/476bd6c3f1631cdc02aba8920e0b07b8-p_e.jpg,False,TOWNHOUSE,RECENTLY_SOLD,WA,114 16th Avenue UNIT C,98122,RECENTLY_SOLD,1360.0,False,USA,Unit C,sqft,781700,Seattle,,False,2.0,,USD
,False,,-122.34449,1.0,,{},False,,,47.61837,2068532597,809000.0,809000.0,1873,,False,-1,1693465200000,False,True,https://photos.zillowstatic.com/fp/8ec2389e7da7fae47db7937cb965d1bd-p_e.jpg,False,CONDO,RECENTLY_SOLD,WA,2510 6th Avenue UNIT 1110,98121,RECENTLY_SOLD,985.0,False,USA,# 1110,,,Seattle,,False,1.0,,USD
725000.0,False,,-122.35785,4.0,,{},False,7683.984,,47.708565,48709036,850000.0,850000.0,4099,,False,-1,1693378800000,False,True,https://photos.zillowstatic.com/fp/57af29c584c99790bb1589d1f4c02a33-p_e.jpg,False,SINGLE_FAMILY,RECENTLY_SOLD,WA,10756 1st Ave Northwest,98177,RECENTLY_SOLD,2140.0,False,USA,,sqft,850100,Seattle,,False,2.0,,USD
822000.0,False,,-122.29657,3.0,,{},False,6699.528,,47.61349,48711510,1015000.0,1015000.0,4994,,False,-1,1693378800000,False,True,https://photos.zillowstatic.com/fp/01ff963b050ce0eef9310a7d82217a6c-p_e.jpg,False,SINGLE_FAMILY,RECENTLY_SOLD,WA,1417 Martin Luther king JR WAY,98122,RECENTLY_SOLD,2440.0,False,USA,,sqft,1015100,Seattle,,False,2.0,,USD
1003000.0,False,,-122.31982,3.0,,{},False,2800.908,,47.637386,48785462,1020000.0,1020000.0,4527,,False,-1,1693378800000,False,True,https://photos.zillowstatic.com/fp/82a95cc68db47c4562a7486c54b0deb6-p_e.jpg,False,SINGLE_FAMILY,RECENTLY_SOLD,WA,2002 10th Avenue E,98102,RECENTLY_SOLD,2250.0,False,USA,,sqft,1020100,Seattle,,False,2.0,,USD
623000.0,False,,-122.38656,2.0,,{},False,1681.416,,47.65523,48824599,695000.0,695000.0,3499,,False,-1,1693378800000,False,True,https://photos.zillowstatic.com/fp/91c66c8f2e253bace5ee40f10c90cd9d-p_e.jpg,False,TOWNHOUSE,RECENTLY_SOLD,WA,3843 23rd Avenue W UNIT A,98199,RECENTLY_SOLD,1310.0,False,USA,# A,sqft,700200,Seattle,,False,2.0,,USD
751000.0,False,,-122.39185,6.0,,{},False,4399.56,,47.65886,48825287,2000000.0,2000000.0,7199,,False,-1,1693378800000,False,True,https://photos.zillowstatic.com/fp/0635af9e5218224d9f84377cda494267-p_e.jpg,False,SINGLE_FAMILY,RECENTLY_SOLD,WA,4242 Williams Avenue W,98199,RECENTLY_SOLD,3295.0,False,USA,,sqft,,Seattle,,False,4.0,,USD
599000.0,False,,-122.32921,3.0,,{},False,3428.172,,47.72062,48843042,585000.0,585000.0,2749,,False,-1,1693378800000,False,True,https://photos.zillowstatic.com/fp/5ef8a04603d803c9e13368e8a30d5052-p_e.jpg,False,SINGLE_FAMILY,RECENTLY_SOLD,WA,12525 1st Avenue NE,98125,RECENTLY_SOLD,1040.0,False,USA,,sqft,794200,Seattle,,False,1.0,,USD
869000.0,False,,-122.40991,4.0,,{},False,5797.836,,47.649677,48855609,1349000.0,1349000.0,3999,,False,-1,1693378800000,False,True,https://photos.zillowstatic.com/fp/dd0d7a046411765e243b567ad975ce4e-p_e.jpg,False,SINGLE_FAMILY,RECENTLY_SOLD,WA,3235 W Viewmont Way W,98199,RECENTLY_SOLD,1760.0,False,USA,,sqft,1349100,Seattle,,False,2.0,,USD
573000.0,False,,-122.374306,3.0,,{},False,5248.98,,47.53177,48936120,695000.0,695000.0,3145,,False,-1,1693378800000,False,True,https://photos.zillowstatic.com/fp/8449066b859e6f4ae75936f1a80f7915-p_e.jpg,False,SINGLE_FAMILY,RECENTLY_SOLD,WA,7903 32nd Avenue SW,98126,RECENTLY_SOLD,1350.0,False,USA,,sqft,695100,Seattle,,False,2.0,,USD
1121000.0,False,,-122.31332,4.0,,{},False,6381.54,,47.69464,48945889,1295000.0,1295000.0,3800,,False,-1,1693378800000,False,True,https://photos.zillowstatic.com/fp/ea3981296ccfb2e2ac397abfe2256254-p_e.jpg,False,SINGLE_FAMILY,RECENTLY_SOLD,WA,1235 NE 91st Street,98115,RECENTLY_SOLD,1975.0,False,USA,,sqft,1295100,Seattle,,False,3.0,,USD
499000.0,False,,-122.259056,3.0,,{},False,5248.98,,47.51198,49016498,515000.0,515000.0,2900,,False,-1,1693378800000,False,True,https://photos.zillowstatic.com/fp/e89db2604958f741b66b27ab27b6d975-p_e.jpg,False,SINGLE_FAMILY,RECENTLY_SOLD,WA,9912 59th Avenue S,98118,RECENTLY_SOLD,1330.0,False,USA,,sqft,536700,Seattle,,False,1.0,,USD
625000.0,False,,-122.26938,6.0,,{},False,8646.66,,47.510258,49017297,750000.0,750000.0,3599,,False,-1,1693378800000,False,True,https://photos.zillowstatic.com/fp/aed32c048f00a27b73dbc190d5f0cdba-p_e.jpg,False,SINGLE_FAMILY,RECENTLY_SOLD,WA,10026 51st Avenue S,98178,RECENTLY_SOLD,2700.0,False,USA,,sqft,757000,Seattle,,False,2.0,,USD
1589000.0,False,,-122.41109,3.0,,{},False,3598.056,,47.576824,49047878,1760000.0,1760000.0,4250,,False,-1,1693378800000,False,True,https://photos.zillowstatic.com/fp/ce8e66b5cd6f3b7df4bdcc322a920b8c-p_e.jpg,False,SINGLE_FAMILY,RECENTLY_SOLD,WA,3027 61st Avenue SW,98116,RECENTLY_SOLD,2520.0,False,USA,,sqft,1745800,Seattle,,False,3.0,,USD
1038000.0,False,,-122.388504,4.0,,{},False,4678.344,,47.570484,49067778,1250000.0,1250000.0,4099,,False,-1,1693378800000,False,True,https://photos.zillowstatic.com/fp/f4ba59c143059fff51eae3c3b0b3728c-p_e.jpg,False,SINGLE_FAMILY,RECENTLY_SOLD,WA,3653 44th Avenue SW,98116,RECENTLY_SOLD,1970.0,False,USA,,sqft,1250100,Seattle,,False,3.0,,USD
700000.0,False,,-122.348366,4.0,,{},False,7618.644,,47.51965,49073505,789950.0,789950.0,3750,,False,-1,1693378800000,False,True,https://photos.zillowstatic.com/fp/3f3d387a218ca9d6783a4fc7ba666103-p_e.jpg,False,SINGLE_FAMILY,RECENTLY_SOLD,WA,9245 10th Ave SW,98106,RECENTLY_SOLD,2360.0,False,USA,,sqft,790000,Seattle,,False,3.0,,USD
813000.0,False,,-122.297844,4.0,,{},False,3698.244,,47.667336,49081049,1220000.0,1220000.0,3949,,False,-1,1693378800000,False,True,https://photos.zillowstatic.com/fp/6e7612abc38e781806a8e14995a5d095-p_e.jpg,False,SINGLE_FAMILY,RECENTLY_SOLD,WA,2708 NE 53rd Street,98105,RECENTLY_SOLD,1980.0,False,USA,,sqft,1056300,Seattle,,False,2.0,,USD
883000.0,False,,-122.385056,5.0,,{},False,6599.34,,47.508022,49082020,1160000.0,1160000.0,4498,,False,-1,1693378800000,False,True,https://photos.zillowstatic.com/fp/873d2ffb22133fb22219d1afd2019ce7-p_e.jpg,False,SINGLE_FAMILY,RECENTLY_SOLD,WA,4115 SW 106th Street,98146,RECENTLY_SOLD,3230.0,False,USA,,sqft,1160100,Seattle,,False,3.0,,USD
670000.0,False,,-122.371574,3.0,,{},False,5140.08,,47.538937,49083537,725000.0,725000.0,2999,,False,-1,1693378800000,False,True,https://photos.zillowstatic.com/fp/5fa05d268ea2f0d7e5db63fbcb47f3a5-p_e.jpg,False,SINGLE_FAMILY,RECENTLY_SOLD,WA,7107 30th Ave SW,98126,RECENTLY_SOLD,1700.0,False,USA,,sqft,720000,Seattle,,False,1.0,,USD
636000.0,False,,-122.35304,,,{},False,6285.708,,47.694637,49135420,580000.0,580000.0,2550,,False,-1,1693378800000,False,True,https://photos.zillowstatic.com/fp/8ec193b9a9003f52817c01d2cb87ebde-p_e.jpg,False,LOT,RECENTLY_SOLD,WA,9011 Dayton Avenue N,98103,RECENTLY_SOLD,0.0,False,USA,,sqft,599800,Seattle,,False,,,USD
,False,,-122.34532,3.0,,{},False,792.792,,47.628548,2056138059,1015000.0,1015000.0,4469,,False,-1,1693378800000,False,True,https://photos.zillowstatic.com/fp/53fffbcf41c08f2eeae621e06a6fe08b-p_e.jpg,False,TOWNHOUSE,RECENTLY_SOLD,WA,1017 C 6th Avenue N,98109,RECENTLY_SOLD,1541.0,False,USA,,sqft,1015100,Seattle,,False,2.0,,USD
,False,,-122.28555,1.0,,{},False,,,47.66385,2056148613,325000.0,325000.0,1825,,False,-1,1693378800000,False,True,https://photos.zillowstatic.com/fp/eae38459488bfde0b5b50bea763e2546-p_e.jpg,False,CONDO,RECENTLY_SOLD,WA,4809 Terrace Drive NE UNIT G4809,98105,RECENTLY_SOLD,605.0,False,USA,# G4809,,325000,Seattle,,False,1.0,,USD
,False,,-122.34445,2.0,,{},False,,,47.61837,2056570963,1387000.0,1387000.0,2131,,False,-1,1693378800000,False,True,https://photos.zillowstatic.com/fp/23ae418cf84abd92e8083a7cb36679d4-p_e.jpg,False,CONDO,RECENTLY_SOLD,WA,2510 6th Avenue UNIT 2702,98121,RECENTLY_SOLD,1154.0,False,USA,Unit 2702,,1387100,Seattle,,False,2.0,,USD
,False,,-122.30298,4.0,,{},False,1825.164,,47.694027,2058072028,1350000.0,1350000.0,4950,,False,-1,1693378800000,False,True,https://photos.zillowstatic.com/fp/32ccb23401f98d46a06da53c8f650616-p_e.jpg,False,TOWNHOUSE,RECENTLY_SOLD,WA,2344 NE 90th Street,98115,RECENTLY_SOLD,2610.0,False,USA,,sqft,1350100,Seattle,,False,3.0,,USD
,False,,-122.29462,2.0,,{},False,1228.392,,47.58048,2068129990,698000.0,698000.0,2800,,False,-1,1693378800000,False,True,https://photos.zillowstatic.com/fp/e2c0fe61f3fab19b6887a8214234fa77-p_e.jpg,False,SINGLE_FAMILY,RECENTLY_SOLD,WA,2521 30th Avenue S UNIT A,98144,RECENTLY_SOLD,930.0,False,USA,# A,sqft,698100,Seattle,,False,2.0,,USD
,False,,-122.32365,2.0,,{},False,984.456,,47.682922,2078793815,658000.0,658000.0,3179,,False,-1,1693378800000,False,True,https://photos.zillowstatic.com/fp/49b6baeee54aac47fab8d63ac417f65a-p_e.jpg,False,TOWNHOUSE,RECENTLY_SOLD,WA,7462 4th Avenue NE UNIT A,98115,RECENTLY_SOLD,1020.0,False,USA,# A,sqft,658100,Seattle,,False,2.0,,USD
564000.0,False,,-122.35247,2.0,,{},False,7226.604,,47.729313,48656731,655000.0,655000.0,2695,,False,-1,1693292400000,False,True,https://photos.zillowstatic.com/fp/1a08429e090a7ff42adc9ee998a69a0b-p_e.jpg,False,SINGLE_FAMILY,RECENTLY_SOLD,WA,515 N 138th Street,98133,RECENTLY_SOLD,1000.0,False,USA,,sqft,666400,Seattle,,False,1.0,,USD
1110000.0,False,,-122.288864,4.0,,{},False,6298.776,,47.58817,48717286,2070000.0,2070000.0,5917,,False,-1,1693292400000,False,True,https://photos.zillowstatic.com/fp/3d66ff4b9e43f1c605d41dec35c54839-p_e.jpg,False,SINGLE_FAMILY,RECENTLY_SOLD,WA,1520 Lake Washington Boulevard S,98144,RECENTLY_SOLD,3360.0,False,USA,,sqft,2070300,Seattle,,False,4.0,,USD
658000.0,False,,-122.37721,3.0,,{},False,4804.668,,47.52445,48804799,570000.0,570100.0,2900,,False,-1,1693292400000,False,True,https://photos.zillowstatic.com/fp/af29dfa1fe9ef413c7dd41348ed61735-p_e.jpg,False,SINGLE_FAMILY,RECENTLY_SOLD,WA,3509 SW Trenton Street,98126,PRE_FORECLOSURE,1580.0,False,USA,,sqft,570100,Seattle,,False,1.0,,USD
861000.0,False,,-122.32112,6.0,,{},False,3571.92,,47.689445,48832656,710000.0,710000.0,4725,,False,-1,1693292400000,False,True,https://photos.zillowstatic.com/fp/57837c3fcf5a2cdf3d0d711ba2b4b543-p_e.jpg,False,SINGLE_FAMILY,RECENTLY_SOLD,WA,543 NE 84th Street,98115,RECENTLY_SOLD,1960.0,False,USA,,sqft,710100,Seattle,,False,3.0,,USD
926000.0,False,,-122.36835,3.0,,{},False,10145.124,,47.704567,48885696,1211000.0,1211000.0,4300,,False,-1,1693292400000,False,True,https://photos.zillowstatic.com/fp/437c4551dfc3aa118771383ba34f4445-p_e.jpg,False,SINGLE_FAMILY,RECENTLY_SOLD,WA,10342 9th Avenue NW,98177,RECENTLY_SOLD,2500.0,False,USA,,sqft,1211200,Seattle,,False,2.0,,USD
1548000.0,False,,-122.317955,4.0,,{},False,5501.628,,47.64493,48888773,2145000.0,2145000.0,5355,,False,-1,1693292400000,False,True,https://photos.zillowstatic.com/fp/0538d23eca93e74e264ea3ab18bf382c-p_e.jpg,False,SINGLE_FAMILY,RECENTLY_SOLD,WA,2710 11th Avenue E,98102,RECENTLY_SOLD,2990.0,False,USA,,sqft,2145300,Seattle,,False,3.0,,USD
697000.0,False,,-122.3234,3.0,,{},False,3057.912,,47.669834,48898588,800000.0,800000.0,3844,,False,-1,1693292400000,False,True,https://photos.zillowstatic.com/fp/7821c235eb3e40675e7c9097cc954765-p_e.jpg,False,SINGLE_FAMILY,RECENTLY_SOLD,WA,349 NE 57th Street,98105,RECENTLY_SOLD,1620.0,False,USA,,sqft,800100,Seattle,,False,2.0,,USD
388000.0,False,,-122.355446,4.0,,{},False,3049.2,,47.52762,48932620,540000.0,540000.0,2949,,False,-1,1693292400000,False,True,https://photos.zillowstatic.com/fp/bce72ec4570d47e8dfabb12a1104ede6-p_e.jpg,False,SINGLE_FAMILY,RECENTLY_SOLD,WA,8421 16th Avenue SW,98106,RECENTLY_SOLD,1770.0,False,USA,,sqft,526700,Seattle,,False,1.0,,USD
1945000.0,False,,-122.35193,4.0,,{},False,5279.472,,47.62834,48963570,1980000.0,1980000.0,5339,,False,-1,1693292400000,False,True,https://photos.zillowstatic.com/fp/15d61660921d9fb03f8bf285ccf1beb5-p_e.jpg,False,SINGLE_FAMILY,RECENTLY_SOLD,WA,216 Ward Street,98109,RECENTLY_SOLD,3700.0,False,USA,,sqft,1980300,Seattle,,False,3.0,,USD
753000.0,False,,-122.30186,3.0,,{},False,3341.052,,47.610912,49024194,937000.0,937000.0,3599,,False,-1,1693292400000,False,True,https://photos.zillowstatic.com/fp/0de2e7199502d703cdc52ebbc6e468fd-p_e.jpg,False,SINGLE_FAMILY,RECENTLY_SOLD,WA,929 24th Avenue,98122,RECENTLY_SOLD,1380.0,False,USA,,sqft,937100,Seattle,,False,2.0,,USD
1887000.0,False,,-122.272995,4.0,,{},False,7000.092,,47.690804,49034786,2065125.0,2065125.0,5273,,False,-1,1693292400000,False,True,https://photos.zillowstatic.com/fp/2d487c35093a664730d469bb00910580-p_e.jpg,False,SINGLE_FAMILY,RECENTLY_SOLD,WA,4938 NE 85th Street,98115,RECENTLY_SOLD,3020.0,False,USA,,sqft,2065400,Seattle,,False,4.0,,USD
540000.0,False,,-122.395515,5.0,,{},False,1820.808,,47.68523,49038305,1330000.0,1330000.0,4600,,False,-1,1693292400000,False,True,https://photos.zillowstatic.com/fp/201d180e6e4f44b202254a93afcdb547-p_e.jpg,False,SINGLE_FAMILY,RECENTLY_SOLD,WA,7710 30th Avenue NW,98117,RECENTLY_SOLD,2225.0,False,USA,,sqft,1330200,Seattle,,False,4.0,,USD
923000.0,False,,-122.341545,3.0,,{},False,1576.872,,47.652546,49077067,988850.0,988850.0,4570,,False,-1,1693292400000,False,True,https://photos.zillowstatic.com/fp/50e95d7f327cfb55c870f8c57e42e287-p_e.jpg,False,SINGLE_FAMILY,RECENTLY_SOLD,WA,1325 N 38th Street,98103,RECENTLY_SOLD,2450.0,False,USA,,sqft,989000,Seattle,,False,2.0,,USD
509000.0,False,,-122.344406,2.0,,{},False,,,47.63944,49099173,599900.0,599900.0,1560,,False,-1,1693292400000,False,True,https://photos.zillowstatic.com/fp/fc9d2a46bd00e875f301acb4528e4efe-p_e.jpg,False,CONDO,RECENTLY_SOLD,WA,2167 Dexter Avenue N UNIT 202,98109,RECENTLY_SOLD,1025.0,False,USA,Apt 202,,601100,Seattle,,False,2.0,,USD
1420000.0,False,,-122.41001,4.0,,{},False,5018.112,,47.57128,54896478,1319702.0,1319702.0,4250,,False,-1,1693292400000,False,True,https://photos.zillowstatic.com/fp/b1535eb9eeb4abb30182da53a96b0d1b-p_e.jpg,False,SINGLE_FAMILY,RECENTLY_SOLD,WA,6002 SW Orleans Street,98116,RECENTLY_SOLD,2290.0,False,USA,,sqft,1319900,Seattle,,False,3.0,,USD
582000.0,False,,-122.36666,2.0,,{},False,1341.648,,47.668217,82830629,655000.0,655000.0,3597,,False,-1,1693292400000,False,True,https://photos.zillowstatic.com/fp/a6f75bd855255d54e296926938f6dcd1-p_e.jpg,False,SINGLE_FAMILY,RECENTLY_SOLD,WA,806 NW 54th Street UNIT A,98107,RECENTLY_SOLD,1640.0,False,USA,# A,sqft,655100,Seattle,,False,2.0,,USD
848000.0,False,,-122.37756,4.0,,{},False,5806.548,,47.5133,117748596,811000.0,811000.0,3300,,False,-1,1693292400000,False,True,https://photos.zillowstatic.com/fp/60c2d3605c99f783d21967b4248f482f-p_e.jpg,False,SINGLE_FAMILY,RECENTLY_SOLD,WA,3527 SW 100th Street,98146,RECENTLY_SOLD,1790.0,False,USA,,sqft,811100,Seattle,,False,3.0,,USD
,False,,-122.35613,4.0,,{},False,2016.828,,47.72613,2055916120,752543.0,752543.0,3599,,False,-1,1693292400000,False,True,https://photos.zillowstatic.com/fp/e46319bab23a1d3add302739dcec9469-p_e.jpg,False,TOWNHOUSE,RECENTLY_SOLD,WA,13335 D Greenwood Avenue N UNIT 11,98133,RECENTLY_SOLD,1751.0,False,USA,# 11,sqft,745500,Seattle,,False,4.0,,USD
,False,,-122.35636,2.0,,{},False,1420.056,,47.726086,2057177241,650000.0,650000.0,3099,,False,-1,1693292400000,False,True,https://photos.zillowstatic.com/fp/e46319bab23a1d3add302739dcec9469-p_e.jpg,False,TOWNHOUSE,RECENTLY_SOLD,WA,13337 B Greenwood Avenue N,98133,RECENTLY_SOLD,1372.0,False,USA,,sqft,652500,Seattle,,False,3.0,,USD
,False,,-122.30799,2.0,,{},False,879.912,,47.585007,2057582653,599950.0,599950.0,2781,,False,-1,1693292400000,False,True,https://photos.zillowstatic.com/fp/17f679a28d21e6fcfdc26655db32cd64-p_e.jpg,False,SINGLE_FAMILY,RECENTLY_SOLD,WA,2016 19th Avenue S,98144,RECENTLY_SOLD,978.0,False,USA,,sqft,600000,Seattle,,False,2.0,,USD
,False,,-122.35262,3.0,,{},False,958.32,,47.638412,2068126454,850000.0,850000.0,3900,,False,-1,1693292400000,False,True,https://photos.zillowstatic.com/fp/c3499bddf0f2960e7ff12dc7d7831cc7-p_e.jpg,False,TOWNHOUSE,RECENTLY_SOLD,WA,212 Boston Street UNIT B,98109,RECENTLY_SOLD,1320.0,False,USA,Unit B,sqft,850100,Seattle,,False,2.0,,USD
,False,,-122.29827,9.0,,{},False,4199.184,,47.596905,2104522135,2026300.0,2026300.0,5345,,False,-1,1693292400000,False,True,https://photos.zillowstatic.com/fp/66f56c4bffc19e3e24e3c8cfe7a4c0fb-p_e.jpg,False,MULTI_FAMILY,RECENTLY_SOLD,WA,2608 S Lane Street,98144,RECENTLY_SOLD,4429.0,False,USA,,sqft,2074300,Seattle,,False,7.0,,USD
,False,,-122.409966,2.0,,{},False,,,47.57078,2131007930,1075000.0,1075000.0,3289,,False,-1,1693292400000,False,True,https://photos.zillowstatic.com/fp/975e39247d46d88e2c7ef16480d8f681-p_e.jpg,False,CONDO,RECENTLY_SOLD,WA,3714 Beach Drive SW UNIT 3,98116,RECENTLY_SOLD,1677.0,False,USA,Apt 3,,1075200,Seattle,,False,2.0,,USD
572000.0,False,,-122.28567,4.0,,{},False,3920.0,,47.522076,48678870,475000.0,475000.0,2499,,False,-1,1693206000000,False,True,https://photos.zillowstatic.com/fp/8b2132f1bc888b6711104295cc5acc66-p_e.jpg,False,SINGLE_FAMILY,RECENTLY_SOLD,WA,9042 37th Ave S,98118,RECENTLY_SOLD,1080.0,False,USA,,sqft,568300,Seattle,,False,0.0,,USD
806000.0,False,,-122.36121,5.0,,{},False,5627.952,,47.70403,48688603,1000000.0,1000000.0,4450,,False,-1,1693206000000,False,True,https://photos.zillowstatic.com/fp/7c04a89e384d8bc7ec44e37299ac43de-p_e.jpg,False,SINGLE_FAMILY,RECENTLY_SOLD,WA,10317 3rd Avenue NW,98177,RECENTLY_SOLD,2090.0,False,USA,,sqft,1000200,Seattle,,False,3.0,,USD
1086000.0,False,,-122.35034,3.0,,{},False,3001.284,,47.641697,48749880,1530000.0,1530000.0,4714,,False,-1,1693206000000,False,True,https://photos.zillowstatic.com/fp/fd97776fde5806b9abf216523cdb0bfe-p_e.jpg,False,SINGLE_FAMILY,RECENTLY_SOLD,WA,2506 Nob Hill Avenue N,98109,RECENTLY_SOLD,2170.0,False,USA,,sqft,1530400,Seattle,,False,2.0,,USD
781000.0,False,,-122.3063,4.0,,{},False,10101.564,,47.722775,48779906,940000.0,940000.0,3994,,False,-1,1693206000000,False,True,https://photos.zillowstatic.com/fp/51e87abeab4c1df244c7e3dece0fbdce-p_e.jpg,False,SINGLE_FAMILY,RECENTLY_SOLD,WA,12955 22nd Avenue NE,98125,RECENTLY_SOLD,2475.0,False,USA,,sqft,919000,Seattle,,False,3.0,,USD
1193000.0,False,,-122.28939,5.0,,{},False,4000.0,,47.66644,48799160,1400000.0,1400000.0,4774,,False,-1,1693206000000,False,True,https://photos.zillowstatic.com/fp/7aef10fd9cb1b766ad145c5e24869ad4-p_e.jpg,False,SINGLE_FAMILY,RECENTLY_SOLD,WA,5053 36th Ave NE,98105,RECENTLY_SOLD,2000.0,False,USA,,sqft,1303000,Seattle,,False,3.0,,USD
872000.0,False,,-122.3178,3.0,,{},False,2988.216,,47.686314,48800377,810000.0,810000.0,3775,,False,-1,1693206000000,False,True,https://photos.zillowstatic.com/fp/a9bfbdf3a7c7699f389984da48586b6b-p_e.jpg,False,SINGLE_FAMILY,RECENTLY_SOLD,WA,7907 Roosevelt Way NE,98115,RECENTLY_SOLD,1920.0,False,USA,,sqft,810300,Seattle,,False,2.0,,USD
1522000.0,False,,-122.27755,4.0,,{},False,6599.34,,47.67357,48848873,1675000.0,1675000.0,5150,,False,-1,1693206000000,False,True,https://photos.zillowstatic.com/fp/efca6aa7eeb077eebb26aef7f6b2fa6e-p_e.jpg,False,SINGLE_FAMILY,RECENTLY_SOLD,WA,6022 Vassar Avenue NE,98115,RECENTLY_SOLD,2945.0,False,USA,,sqft,1675500,Seattle,,False,3.0,,USD
1558000.0,False,,-122.28203,3.0,,{},False,0.2755,,47.614616,48932244,1500000.0,1500000.0,5299,,False,-1,1693206000000,False,True,https://photos.zillowstatic.com/fp/9336f262e76b3b4ec4ddf01a6846d803-p_e.jpg,False,SINGLE_FAMILY,RECENTLY_SOLD,WA,1502 40th Avenue,98122,RECENTLY_SOLD,2580.0,False,USA,,acres,1500500,Seattle,,False,3.0,,USD
1344000.0,False,,-122.30527,,,{},False,7501.032,,47.616123,49025801,1330000.0,1330000.0,5395,,False,-1,1693206000000,False,True,https://photos.zillowstatic.com/fp/624abcd5c303f258282b45a51270e1f6-p_e.jpg,False,LOT,RECENTLY_SOLD,WA,1625 21st Avenue,98122,RECENTLY_SOLD,0.0,False,USA,,sqft,1183700,Seattle,,False,,,USD
815000.0,False,,-122.409836,2.0,,{},False,4125.0,,47.650597,49034880,860000.0,860000.0,3394,,False,-1,1693206000000,False,True,https://photos.zillowstatic.com/fp/93a0095a5df164e9843c0c1161d528cf-p_e.jpg,False,SINGLE_FAMILY,RECENTLY_SOLD,WA,3403 W Viewmont Way W,98199,RECENTLY_SOLD,1450.0,False,USA,,sqft,887200,Seattle,,False,1.0,,USD
1109000.0,False,,-122.27959,3.0,,{},False,7618.644,,47.71607,49103375,1310000.0,1310000.0,4200,,False,-1,1693206000000,False,True,https://photos.zillowstatic.com/fp/ac6eb4ebbb9308748ecc7274c9336aca-p_e.jpg,False,SINGLE_FAMILY,RECENTLY_SOLD,WA,11915 Lakeside Place NE,98125,RECENTLY_SOLD,2910.0,False,USA,,sqft,1310400,Seattle,,False,5.0,,USD
727000.0,False,,-122.305954,3.0,,{},False,3600.0,,47.60759,49114667,500000.0,500000.0,3200,,False,-1,1693206000000,False,True,https://photos.zillowstatic.com/fp/4e23e860e3b8ec3714ecdec98ef7483c-p_e.jpg,False,SINGLE_FAMILY,RECENTLY_SOLD,WA,612 20th Ave,98122,RECENTLY_SOLD,1190.0,False,USA,,sqft,697900,Seattle,,False,1.0,,USD
852000.0,False,,-122.3689,4.0,,{},False,4081.572,,47.68523,49131620,1047500.0,1047500.0,4200,,False,-1,1693206000000,False,True,https://photos.zillowstatic.com/fp/231d6e353209add9c649d23377bf2d5e-p_e.jpg,False,SINGLE_FAMILY,RECENTLY_SOLD,WA,912 NW 77th Street,98117,RECENTLY_SOLD,2170.0,False,USA,,sqft,1047800,Seattle,,False,2.0,,USD
910000.0,False,,-122.3737,3.0,,{},False,6930.396,,47.704575,49138135,910000.0,910000.0,3829,,False,-1,1693206000000,False,True,https://photos.zillowstatic.com/fp/4b78f3bcab7d6a37a1a852b82eaf6689-p_e.jpg,False,SINGLE_FAMILY,RECENTLY_SOLD,WA,10340 14th Avenue NW,98177,RECENTLY_SOLD,1620.0,False,USA,,sqft,910300,Seattle,,False,2.0,,USD
682000.0,False,,-122.360275,2.0,,{},False,4468.0,,47.66562,49141102,635000.0,635000.0,2650,,False,-1,1693206000000,False,True,https://photos.zillowstatic.com/fp/c9ac5dd90ae1f555a93f73bd093e8971-p_e.jpg,False,SINGLE_FAMILY,RECENTLY_SOLD,WA,5016 3rd Ave NW,98107,RECENTLY_SOLD,780.0,False,USA,,sqft,654500,Seattle,,False,1.0,,USD
1879000.0,False,,-122.32104,,,{},False,5000.688,,47.625877,49147779,1650000.0,1650000.0,5925,,False,-1,1693206000000,False,True,https://photos.zillowstatic.com/fp/33eaf095ef70a7f1411d0a4b6dae1de2-p_e.jpg,False,LOT,RECENTLY_SOLD,WA,728 Broadway E,98102,RECENTLY_SOLD,0.0,False,USA,,sqft,1650400,Seattle,,False,,,USD
673000.0,False,,-122.356186,4.0,,{},False,1023.66,,47.713993,68475118,740000.0,740000.0,2850,,False,-1,1693206000000,False,True,https://photos.zillowstatic.com/fp/84054005423b0d762b6923a672621d1a-p_e.jpg,False,TOWNHOUSE,RECENTLY_SOLD,WA,215 N 117th Street,98133,RECENTLY_SOLD,1480.0,False,USA,,sqft,740200,Seattle,,False,4.0,,USD
654000.0,False,,-122.38494,3.0,,{},False,1436.0,,47.565895,80261452,798000.0,798000.0,3495,,False,-1,1693206000000,False,True,https://photos.zillowstatic.com/fp/c8c029e0e82155c08b172beae7394dfa-p_e.jpg,False,TOWNHOUSE,RECENTLY_SOLD,WA,4120 42nd Ave SW,98116,RECENTLY_SOLD,1530.0,False,USA,,sqft,741300,Seattle,,False,2.5,,USD
1390000.0,False,,-122.26779,4.0,,{},False,5013.756,,47.539486,122963323,1535000.0,1535000.0,5899,,False,-1,1693206000000,False,True,https://photos.zillowstatic.com/fp/54bfb109f5019c0ec53fe9bda3c8cde8-p_e.jpg,False,SINGLE_FAMILY,RECENTLY_SOLD,WA,7009 Seward Park Avenue S,98118,RECENTLY_SOLD,3030.0,False,USA,,sqft,1535500,Seattle,,False,3.0,,USD
,False,,-122.38494,3.0,,{},False,1437.48,,47.56586,2068103187,798000.0,798000.0,3497,,False,-1,1693206000000,False,True,https://photos.zillowstatic.com/fp/0d39a31e6743217c4af453e0762fd864-p_e.jpg,False,SINGLE_FAMILY,RECENTLY_SOLD,WA,4120 42nd Avenue SW UNIT A,98116,RECENTLY_SOLD,1530.0,False,USA,# A,sqft,798900,Seattle,,False,3.0,,USD
,False,,-122.31773,2.0,,{},False,,,47.605865,2078467033,595000.0,595000.0,1546,,False,-1,1693206000000,False,True,https://photos.zillowstatic.com/fp/b8f08aeceead72d0844a9414f58cc31e-p_e.jpg,False,CONDO,RECENTLY_SOLD,WA,412 11th Avenue UNIT PH13,98122,RECENTLY_SOLD,1035.0,False,USA,Penthouse 13,,594700,Seattle,,False,2.0,,USD
1151000.0,False,,-122.39454,3.0,,{},False,5100.876,,47.69729,48673223,1310000.0,1310000.0,4500,,False,-1,1692946800000,False,True,https://photos.zillowstatic.com/fp/048054aa250eafd32143c48b2b20d085-p_e.jpg,False,SINGLE_FAMILY,RECENTLY_SOLD,WA,2833 NW 94th Street,98117,RECENTLY_SOLD,2380.0,False,USA,,sqft,1310200,Seattle,,False,3.0,,USD
2343000.0,False,,-122.38441,3.0,,{},False,7034.94,,47.701416,48677402,2695000.0,2695000.0,7139,,False,-1,1692946800000,False,True,https://photos.zillowstatic.com/fp/f5a536c378463d4cb3b2ba7afee35d20-p_e.jpg,False,SINGLE_FAMILY,RECENTLY_SOLD,WA,2132 NW 99th Street,98117,RECENTLY_SOLD,3820.0,False,USA,,sqft,2697100,Seattle,,False,4.0,,USD
714000.0,False,,-122.35799,3.0,,{},False,6451.236,,47.72477,48789918,765000.0,765000.0,3391,,False,-1,1692946800000,False,True,https://photos.zillowstatic.com/fp/22f7207bdfac81bae33c380f97dddcb4-p_e.jpg,False,SINGLE_FAMILY,RECENTLY_SOLD,WA,13123 Palatine Avenue N,98133,RECENTLY_SOLD,1860.0,False,USA,,sqft,765100,Seattle,,False,1.0,,USD
808000.0,False,,-122.374504,4.0,,{},False,1324.224,,47.647068,48825070,1139050.0,1139050.0,4829,,False,-1,1692946800000,False,True,https://photos.zillowstatic.com/fp/569125c7d00229b1d8e7fd758cb77d67-p_e.jpg,False,SINGLE_FAMILY,RECENTLY_SOLD,WA,3012 14th Avenue W,98119,RECENTLY_SOLD,1830.0,False,USA,,sqft,1139600,Seattle,,False,4.0,,USD
730000.0,False,,-122.26292,3.0,,{},False,1494.108,,47.67473,48825871,885000.0,885000.0,3849,,False,-1,1692946800000,False,True,https://photos.zillowstatic.com/fp/47ddad8c845e87e5419547bb09bd78bb-p_e.jpg,False,TOWNHOUSE,RECENTLY_SOLD,WA,6011 NE 64th Street UNIT A,98115,RECENTLY_SOLD,1720.0,False,USA,# A,sqft,885100,Seattle,,False,4.0,,USD
685000.0,False,,-122.32626,2.0,,{},False,,,47.64364,48845487,875000.0,875000.0,2324,,False,-1,1692946800000,False,True,https://photos.zillowstatic.com/fp/fee1b3f185cd997411b9b952ebbfbbef-p_e.jpg,False,CONDO,RECENTLY_SOLD,WA,2611 Eastlake Avenue E UNIT 405,98102,RECENTLY_SOLD,1162.0,False,USA,Apt 405,,875100,Seattle,,False,2.0,,USD
655000.0,False,,-122.31767,4.0,,{},False,4800.312,,47.564075,48906669,700000.0,700000.0,3099,,False,-1,1692946800000,False,True,https://photos.zillowstatic.com/fp/88f6291abdafb5ceef2b720dfcd24855-p_e.jpg,False,SINGLE_FAMILY,RECENTLY_SOLD,WA,4343 12th Avenue S,98108,RECENTLY_SOLD,1460.0,False,USA,,sqft,700100,Seattle,,False,2.0,,USD
657000.0,False,,-122.28455,4.0,,{},False,6638.544,,47.528934,48909227,810000.0,810000.0,4999,,False,-1,1692946800000,False,True,https://photos.zillowstatic.com/fp/5f238ad13353d945cf6216b942d88270-p_e.jpg,False,SINGLE_FAMILY,RECENTLY_SOLD,WA,8320 38th Avenue S,98118,RECENTLY_SOLD,3149.0,False,USA,,sqft,810500,Seattle,,False,3.0,,USD
2193000.0,False,,-122.27878,4.0,,{},False,4399.56,,47.638294,48937045,2500000.0,2500000.0,6545,,False,-1,1692946800000,False,True,https://photos.zillowstatic.com/fp/fce5a6259abdce80e7cee692dc4ce874-p_e.jpg,False,SINGLE_FAMILY,RECENTLY_SOLD,WA,2045 42nd Avenue E,98112,RECENTLY_SOLD,2680.0,False,USA,,sqft,2506300,Seattle,,False,4.0,,USD
610000.0,False,,-122.27123,3.0,,{},False,0.2525,,47.556004,48969544,787500.0,787500.0,2857,,False,-1,1692946800000,False,True,https://photos.zillowstatic.com/fp/0043ca56daa26fba62f8ebc5f6ca8bc1-p_e.jpg,False,SINGLE_FAMILY,RECENTLY_SOLD,WA,5031 50th Avenue S,98118,RECENTLY_SOLD,1039.0,False,USA,,acres,787600,Seattle,,False,2.0,,USD
2302000.0,False,,-122.286285,3.0,,{},False,7670.916,,47.621643,48997420,2200000.0,2200000.0,7016,,False,-1,1692946800000,False,True,https://photos.zillowstatic.com/fp/477c8ec3ad8b84022ce104d596439b9e-p_e.jpg,False,SINGLE_FAMILY,RECENTLY_SOLD,WA,309 37th Avenue E,98112,RECENTLY_SOLD,4230.0,False,USA,,sqft,2200300,Seattle,,False,4.0,,USD
812000.0,False,,-122.40321,2.0,,{},False,3598.056,,47.67525,49012823,775000.0,775000.0,3495,,False,-1,1692946800000,False,True,https://photos.zillowstatic.com/fp/1dfa17e83362338ac53df613576e6061-p_e.jpg,False,SINGLE_FAMILY,RECENTLY_SOLD,WA,6410 36th Avenue NW,98107,RECENTLY_SOLD,1950.0,False,USA,,sqft,773600,Seattle,,False,1.0,,USD
751000.0,False,,-122.35054,3.0,,{},False,5039.892,,47.709827,49019876,825000.0,825000.0,3495,,False,-1,1692946800000,False,True,https://photos.zillowstatic.com/fp/a1e19ab8591bbd312339a914098377f1-p_e.jpg,False,SINGLE_FAMILY,RECENTLY_SOLD,WA,11037 Fremont Avenue N,98133,RECENTLY_SOLD,2030.0,False,USA,,sqft,825400,Seattle,,False,1.0,,USD
600000.0,False,,-122.39145,2.0,,{},False,5998.212,,47.547028,49048646,602000.0,602000.0,2949,,False,-1,1692946800000,False,True,https://photos.zillowstatic.com/fp/00a043f9136a3f7b8eef056bb8e971c0-p_e.jpg,False,SINGLE_FAMILY,RECENTLY_SOLD,WA,4600 SW Graham Street,98136,RECENTLY_SOLD,1300.0,False,USA,,sqft,602100,Seattle,,False,1.0,,USD
633000.0,False,,-122.368004,2.0,,{},False,5000.688,,47.691086,49060159,820000.0,820000.0,3200,,False,-1,1692946800000,False,True,https://photos.zillowstatic.com/fp/27a57ddd7dd696b7e05ffdeaf31ad6a2-p_e.jpg,False,SINGLE_FAMILY,RECENTLY_SOLD,WA,8514 9th Avenue NW,98117,RECENTLY_SOLD,1268.0,False,USA,,sqft,820400,Seattle,,False,2.0,,USD
1666000.0,False,,-122.28111,4.0,,{},False,7270.164,,47.71552,49103354,1700000.0,1700000.0,4500,,False,-1,1692946800000,False,True,https://photos.zillowstatic.com/fp/3d006c70461dd4bcac813a2e56f8afcb-p_e.jpg,False,SINGLE_FAMILY,RECENTLY_SOLD,WA,11912 Exeter Avenue NE,98125,RECENTLY_SOLD,3110.0,False,USA,,sqft,1700300,Seattle,,False,3.0,,USD
916000.0,False,,-122.337204,3.0,,{},False,4011.876,,47.66816,49114958,900000.0,900000.0,3994,,False,-1,1692946800000,False,True,https://photos.zillowstatic.com/fp/df3df1005e859f8ea6d86ab756ac7aed-p_e.jpg,False,SINGLE_FAMILY,RECENTLY_SOLD,WA,1626 N 54th Street,98103,RECENTLY_SOLD,1740.0,False,USA,,sqft,900400,Seattle,,False,2.0,,USD
654000.0,False,,-122.38534,2.0,,{},False,8367.876,,47.535522,49120548,674000.0,674000.0,2695,,False,-1,1692946800000,False,True,https://photos.zillowstatic.com/fp/ee7cf18e31e67cd2f2eca36179d02b7e-p_e.jpg,False,SINGLE_FAMILY,RECENTLY_SOLD,WA,4117 SW Webster Street,98136,RECENTLY_SOLD,1000.0,False,USA,,sqft,674500,Seattle,,False,1.0,,USD
1044000.0,False,,-122.39288,4.0,,{},False,5000.688,,47.547882,49133979,1167000.0,1167000.0,4200,,False,-1,1692946800000,False,True,https://photos.zillowstatic.com/fp/f289fd1db284007e6cbf7a03ee2dba00-p_e.jpg,False,SINGLE_FAMILY,RECENTLY_SOLD,WA,6023 47th Avenue SW,98136,RECENTLY_SOLD,2100.0,False,USA,,sqft,1167200,Seattle,,False,3.0,,USD
625000.0,False,,-122.32845,2.0,,{},False,1860.012,,47.668476,49143718,776000.0,776000.0,2900,,False,-1,1692946800000,False,True,https://photos.zillowstatic.com/fp/00d2479199b0d344a25ce0c27b180fdd-p_e.jpg,False,SINGLE_FAMILY,RECENTLY_SOLD,WA,2343 N 55th Street,98103,RECENTLY_SOLD,1050.0,False,USA,,sqft,777800,Seattle,,False,1.0,,USD
367000.0,False,,-122.34595,1.0,,{},False,,,47.633373,63339105,353000.0,353000.0,2151,,False,-1,1692946800000,False,True,https://photos.zillowstatic.com/fp/49a1b673277317ee9aee6d22b96facb3-p_e.jpg,False,CONDO,RECENTLY_SOLD,WA,1601 Taylor Avenue N UNIT 402,98109,RECENTLY_SOLD,640.0,False,USA,Apt 402,,353300,Seattle,,False,1.0,,USD
390000.0,False,,-122.26493,1.0,,{},False,2.0199724517906334,,47.682545,68477797,359950.0,359950.0,1962,,False,-1,1692946800000,False,True,"https://maps.googleapis.com/maps/api/staticmap?mobile=false&sensor=true&maptype=satellite&size=575x242&zoom=17&center=47.68254470825195,-122.26493072509766&key=AIzaSyBJsNQO5ZeG-XAbqqWLKwG08fWITSxg33w&signature=yye41x2YutJsyIlPVIS77UZvY9M=",False,CONDO,RECENTLY_SOLD,WA,5829 NE 75th St #A338,98115,RECENTLY_SOLD,800.0,False,USA,# A338,acres,388100,Seattle,,False,1.0,,USD
692000.0,False,,-122.33201,1.0,,{},False,,,47.60597,83227081,660000.0,660000.0,1776,,False,-1,1692946800000,False,True,https://photos.zillowstatic.com/fp/c22bed83bb23d797dc979452eab3aaf6-p_e.jpg,False,CONDO,RECENTLY_SOLD,WA,909 5th Avenue UNIT 1903,98164,RECENTLY_SOLD,979.0,False,USA,Unit 1903,,660100,Seattle,,False,2.0,,USD
1029000.0,False,,-122.35362,3.0,,{},False,1062.864,,47.632465,338639968,1352000.0,1352000.0,4994,,False,-1,1692946800000,False,True,https://photos.zillowstatic.com/fp/10f73a040ebd45370ea706eda67e63db-p_e.jpg,False,TOWNHOUSE,RECENTLY_SOLD,WA,172 Galer Street,98109,RECENTLY_SOLD,1741.0,False,USA,,sqft,1352200,Seattle,,False,2.0,,USD
,False,,-122.33838,3.0,,{},False,2095.236,,47.65037,2056202847,1115000.0,1115000.0,3699,,False,-1,1692946800000,False,True,https://photos.zillowstatic.com/fp/f6dde51f90c839f332f04cadb8e66cb1-p_e.jpg,False,CONDO,RECENTLY_SOLD,WA,1615 N 36th Street,98103,RECENTLY_SOLD,1126.0,False,USA,,sqft,1115200,Seattle,,False,2.0,,USD
,False,,-122.3449,3.0,,{},False,897.336,,47.660034,2057852412,898950.0,898950.0,3864,,False,-1,1692946800000,False,True,https://photos.zillowstatic.com/fp/cb6fcf6f358f9c9b3401ffac87e40a52-p_e.jpg,False,TOWNHOUSE,RECENTLY_SOLD,WA,4315 Woodland Park Avenue N UNIT E,98103,RECENTLY_SOLD,1285.0,False,USA,# E,sqft,899100,Seattle,,False,3.0,,USD
,False,,-122.26752,2.0,,{},False,,,47.688305,2058149270,655000.0,655000.0,1367,,False,-1,1692946800000,False,True,https://photos.zillowstatic.com/fp/ce3f663e2425a0d3be445e7bc07e1cd0-p_e.jpg,False,CONDO,RECENTLY_SOLD,WA,8005 Sand Point Way NE UNIT A22,98115,RECENTLY_SOLD,1353.0,False,USA,Unit A22,,655100,Seattle,,False,2.0,,USD
,False,,-122.34198,3.0,,{},False,1332.936,,47.693626,2068083437,650000.0,650000.0,3200,,False,-1,1692946800000,False,True,https://photos.zillowstatic.com/fp/748a7933c4f27cbca16f37646d9d4438-p_e.jpg,False,TOWNHOUSE,RECENTLY_SOLD,WA,8842 Midvale Avenue N UNIT A,98103,RECENTLY_SOLD,1270.0,False,USA,# A,sqft,650100,Seattle,,False,2.0,,USD
,False,,-122.31351,2.0,30113996,{'is_newHome': True},False,1.0,,47.617397,2068249811,730000.0,759950.0,3599,BUILDER_SPEC,False,-1,1692946800000,False,True,https://photos.zillowstatic.com/fp/50c8c34b3586869f02837c1ce62cea74-p_e.jpg,False,TOWNHOUSE,RECENTLY_SOLD,WA,1417 E Howell St,98122,FOR_SALE,1106.0,False,USA,,sqft,730300,Seattle,,False,2.0,,USD
,False,,-122.38678,1.0,,{},False,,,47.54124,2095199931,324500.0,324500.0,807,,False,-1,1692946800000,False,True,https://photos.zillowstatic.com/fp/3343d73779eaabf5ebe2b83cf5c282d5-p_e.jpg,False,CONDO,RECENTLY_SOLD,WA,6970 California Avenue SW UNIT B109,98136,RECENTLY_SOLD,570.0,False,USA,Apt B109,,324600,Seattle,,False,1.0,,USD
679000.0,False,,-122.38109,2.0,,{},False,3271.356,,47.56312,48697835,750000.0,750000.0,2995,,False,-1,1692860400000,False,True,https://photos.zillowstatic.com/fp/241ea9345b58d4bda8588626c4ad7575-p_e.jpg,False,SINGLE_FAMILY,RECENTLY_SOLD,WA,4452 39th Avenue SW,98116,RECENTLY_SOLD,1780.0,False,USA,,sqft,750200,Seattle,,False,1.0,,USD
136700.0,False,,-122.36817,2.0,,{},False,657.756,,47.667664,48713830,785000.0,785000.0,3614,,False,-1,1692860400000,False,True,https://photos.zillowstatic.com/fp/c0e3e45841a1d3e264c96691d91a1670-p_e.jpg,False,TOWNHOUSE,RECENTLY_SOLD,WA,845 NW 54th Street,98107,RECENTLY_SOLD,1257.0,False,USA,,sqft,785700,Seattle,,False,2.0,,USD
963000.0,False,,-122.31217,2.0,,{},False,675.18,,47.633545,48725758,864000.0,864000.0,3642,,False,-1,1692860400000,False,True,https://photos.zillowstatic.com/fp/1d42dca8cd5d0b1a25b7e4ea972c01be-p_e.jpg,False,TOWNHOUSE,RECENTLY_SOLD,WA,1544 15th Ave E,98112,RECENTLY_SOLD,1254.0,False,USA,,sqft,929600,Seattle,,False,2.0,,USD
1339000.0,False,,-122.40283,3.0,,{},False,5501.628,,47.63654,48726864,1519999.0,1519999.0,4400,,False,-1,1692860400000,False,True,https://photos.zillowstatic.com/fp/90e60d40cb1637f537cfe5669b20e219-p_e.jpg,False,SINGLE_FAMILY,RECENTLY_SOLD,WA,1921 Edgemont Place W,98199,RECENTLY_SOLD,2200.0,False,USA,,sqft,1520500,Seattle,,False,2.0,,USD
1465000.0,False,,-122.358246,4.0,,{},False,7723.188,,47.684235,48748145,2181000.0,2181000.0,5380,,False,-1,1692860400000,False,True,https://photos.zillowstatic.com/fp/1a54f17ffffce3ccae743ea02936419b-p_e.jpg,False,SINGLE_FAMILY,RECENTLY_SOLD,WA,102 NW 76th Street,98117,RECENTLY_SOLD,2990.0,False,USA,,sqft,2181700,Seattle,,False,3.0,,USD
1163000.0,False,,-122.383446,3.0,,{},False,5580.0,,47.522182,48804100,735000.0,735000.0,3399,,False,-1,1692860400000,False,True,https://photos.zillowstatic.com/fp/3e81588aeec5360c72d9f7bc09f60cd2-p_e.jpg,False,SINGLE_FAMILY,RECENTLY_SOLD,WA,9021 40th Ave SW,98136,RECENTLY_SOLD,1990.0,False,USA,,sqft,1253700,Seattle,,False,1.75,,USD
855000.0,False,,-122.29461,3.0,,{},False,6242.148,,47.70329,48810272,810000.0,810000.0,3800,,False,-1,1692860400000,False,True,https://photos.zillowstatic.com/fp/2be329b1461ae3911d0c6c3dee2c68a0-p_e.jpg,False,SINGLE_FAMILY,RECENTLY_SOLD,WA,3040 NE 103rd Street,98125,RECENTLY_SOLD,2060.0,False,USA,,sqft,810500,Seattle,,False,2.0,,USD
568000.0,False,,-122.35203,2.0,,{},False,,,47.65351,48818307,630001.0,630001.0,1526,,False,-1,1692860400000,False,True,https://photos.zillowstatic.com/fp/7ad6ea5f1d016a469145fd8f529e5a9d-p_e.jpg,False,CONDO,RECENTLY_SOLD,WA,3658 Dayton Avenue N UNIT 401,98103,RECENTLY_SOLD,877.0,False,USA,Apt 401,,630200,Seattle,,False,2.0,,USD
728000.0,False,,-122.40392,2.0,,{},False,5418.864,,47.647976,48943315,1080000.0,1080000.0,3594,,False,-1,1692860400000,False,True,https://photos.zillowstatic.com/fp/b22cca5401ce2ed072aab4adbe255df4-p_e.jpg,False,SINGLE_FAMILY,RECENTLY_SOLD,WA,3039 36th Avenue W,98199,RECENTLY_SOLD,1370.0,False,USA,,sqft,1080300,Seattle,,False,2.0,,USD
710000.0,False,,-122.30183,2.0,,{},False,5413.0,,47.69469,48946432,735000.0,735000.0,2710,,False,-1,1692860400000,False,True,https://photos.zillowstatic.com/fp/b47c7a6052ca9ca1372d6253cfed2375-p_e.jpg,False,SINGLE_FAMILY,RECENTLY_SOLD,WA,9025 25th Ave NE,98115,RECENTLY_SOLD,910.0,False,USA,,sqft,675700,Seattle,,False,1.0,,USD
835000.0,False,,-122.35053,2.0,,{},False,3001.284,,47.660435,48973309,965000.0,965000.0,3994,,False,-1,1692860400000,False,True,https://photos.zillowstatic.com/fp/3c558e600582d99efdc948df64ffae92-p_e.jpg,False,SINGLE_FAMILY,RECENTLY_SOLD,WA,608 N 44th Street,98103,RECENTLY_SOLD,2390.0,False,USA,,sqft,965300,Seattle,,False,1.0,,USD
578000.0,False,,-122.34001,2.0,,{},False,7562.016,,47.72934,48985426,635000.0,635000.0,2299,,False,-1,1692860400000,False,True,https://photos.zillowstatic.com/fp/fc4e75dc406f3e34de6b9da7bc985243-p_e.jpg,False,SINGLE_FAMILY,RECENTLY_SOLD,WA,13721 Ashworth Avenue N,98133,RECENTLY_SOLD,770.0,False,USA,,sqft,635200,Seattle,,False,1.0,,USD
920000.0,False,,-122.33008,4.0,,{'is_FSBA': True},False,5580.036,,47.68784,49008328,958000.0,958000.0,3999,,False,-1,1692860400000,False,True,https://photos.zillowstatic.com/fp/b0bf1d3c2bc471df80bdbc58d5e5b434-p_e.jpg,False,SINGLE_FAMILY,PENDING,WA,8033 Sunnyside Ave N,98103,,2310.0,False,USA,,sqft,866000,Seattle,,False,2.0,,USD
788000.0,False,,-122.285995,2.0,,{},False,4051.08,,47.670135,49102926,835000.0,835000.0,3499,,False,-1,1692860400000,False,True,https://photos.zillowstatic.com/fp/893b0baf0ccee4c493c2e9a2f539546a-p_e.jpg,False,SINGLE_FAMILY,RECENTLY_SOLD,WA,5555 39th Avenue NE,98105,RECENTLY_SOLD,1420.0,False,USA,,sqft,835300,Seattle,,False,1.0,,USD
984000.0,False,,-122.395,5.0,,{},False,5501.628,,47.57992,49124682,1200000.0,1200000.0,4300,,False,-1,1692860400000,False,True,https://photos.zillowstatic.com/fp/8e989756923a05a4cff928cf18e54802-p_e.jpg,False,SINGLE_FAMILY,RECENTLY_SOLD,WA,2642 50th Avenue SW,98116,RECENTLY_SOLD,2480.0,False,USA,,sqft,1200400,Seattle,,False,3.0,,USD
954000.0,False,,-122.3903,4.0,,{},False,5998.212,,47.57893,49124778,1300000.0,1300000.0,4300,,False,-1,1692860400000,False,True,https://photos.zillowstatic.com/fp/992b16434ed6b02e2ddf0fca32d2e103-p_e.jpg,False,SINGLE_FAMILY,RECENTLY_SOLD,WA,2710 46th Avenue SW,98116,RECENTLY_SOLD,2120.0,False,USA,,sqft,1300400,Seattle,,False,3.0,,USD
1231000.0,False,,-122.28516,3.0,,{},False,7100.28,,47.612114,49146456,1355745.0,1355745.0,4194,,False,-1,1692860400000,False,True,https://photos.zillowstatic.com/fp/c27cc71f30e14aa6516b0fecf3bacf75-p_e.jpg,False,SINGLE_FAMILY,RECENTLY_SOLD,WA,1115 38th Avenue,98122,RECENTLY_SOLD,1730.0,False,USA,,sqft,1356600,Seattle,,False,3.0,,USD
602000.0,False,,-122.34197,3.0,,{},False,1335.0,,47.693592,68478911,650000.0,650000.0,3173,,False,-1,1692860400000,False,True,https://photos.zillowstatic.com/fp/9fa41de82b77c6a53e00590ada487a26-p_e.jpg,False,TOWNHOUSE,RECENTLY_SOLD,WA,8842 Midvale Ave N,98103,RECENTLY_SOLD,1310.0,False,USA,,sqft,640200,Seattle,,False,2.0,,USD
663000.0,False,,-122.31192,3.0,,{},False,945.252,,47.5997,80109007,675000.0,675000.0,3399,,False,-1,1692860400000,False,True,https://photos.zillowstatic.com/fp/e13b9b38d94b0fbce5a052c7b4c20a34-p_e.jpg,False,TOWNHOUSE,RECENTLY_SOLD,WA,303 16th Avenue S,98144,RECENTLY_SOLD,1350.0,False,USA,,sqft,675200,Seattle,,False,3.0,,USD
384000.0,False,,-122.35489,1.0,,{},False,,,47.653828,80124393,380000.0,380000.0,1040,,False,-1,1692860400000,False,True,https://photos.zillowstatic.com/fp/358175c5b9e1f0d57b930d3a3afc392d-p_e.jpg,False,CONDO,RECENTLY_SOLD,WA,3661 Phinney Avenue N UNIT 306,98103,RECENTLY_SOLD,608.0,False,USA,Apt 306,,380100,Seattle,,False,1.0,,USD
865000.0,False,,-122.34115,3.0,,{},False,1544.0,,47.651463,84759250,968000.0,968000.0,3800,,False,-1,1692860400000,False,True,"https://maps.googleapis.com/maps/api/staticmap?mobile=false&sensor=true&maptype=satellite&size=575x242&zoom=17&center=47.65146255493164,-122.34114837646484&key=AIzaSyBJsNQO5ZeG-XAbqqWLKwG08fWITSxg33w&signature=P8ajlyPRkICFnq00VtUp8nYuhzA=",False,TOWNHOUSE,RECENTLY_SOLD,WA,3632A Interlake Ave N,98103,RECENTLY_SOLD,1370.0,False,USA,,sqft,887800,Seattle,,False,2.5,,USD
661000.0,False,,-122.36857,3.0,,{},False,1097.712,,47.690933,89823127,740500.0,740500.0,3614,,False,-1,1692860400000,False,True,https://photos.zillowstatic.com/fp/07ed4530eb3462202b600325e22550af-p_e.jpg,False,TOWNHOUSE,RECENTLY_SOLD,WA,8507 9TH Avenue NW,98117,RECENTLY_SOLD,1480.0,False,USA,,sqft,739600,Seattle,,False,3.0,,USD
721000.0,False,,-122.39215,2.0,,{},False,1084.644,,47.671494,89825099,775000.0,775000.0,3481,,False,-1,1692860400000,False,True,https://photos.zillowstatic.com/fp/25e08bffd6f4409cfc5d65104042b9a2-p_e.jpg,False,TOWNHOUSE,RECENTLY_SOLD,WA,2647 NW 59th Street UNIT A,98107,RECENTLY_SOLD,1280.0,False,USA,# A,sqft,775200,Seattle,,False,3.0,,USD
1633000.0,False,,-122.32688,3.0,,{},False,3057.912,,47.674606,97781898,1766000.0,1766000.0,4914,,False,-1,1692860400000,False,True,https://photos.zillowstatic.com/fp/d98a28f3e4995c0d13a87ba3f93cf90b-p_e.jpg,False,SINGLE_FAMILY,RECENTLY_SOLD,WA,128 NE 63rd Street,98115,RECENTLY_SOLD,2220.0,False,USA,,sqft,1632200,Seattle,,False,3.0,,USD
700000.0,False,,-122.3747,3.0,,{},False,1999.404,,47.543278,241742870,799990.0,799990.0,3394,,False,-1,1692860400000,False,True,https://photos.zillowstatic.com/fp/b3b65f2ed441d5d6ade3aa22f25b2466-p_e.jpg,False,TOWNHOUSE,RECENTLY_SOLD,WA,6544 34th Ave SW,98126,RECENTLY_SOLD,1704.0,False,USA,,sqft,800200,Seattle,,False,3.0,,USD
,False,,-122.34115,3.0,,{},False,1542.024,,47.651417,2056374894,968000.0,968000.0,3800,,False,-1,1692860400000,False,True,https://photos.zillowstatic.com/fp/fe14a3fda0ba1676d41121d2d7e9abb7-p_e.jpg,False,TOWNHOUSE,RECENTLY_SOLD,WA,3632 Interlake Avenue N UNIT A,98103,RECENTLY_SOLD,1370.0,False,USA,# A,sqft,968300,Seattle,,False,3.0,,USD
,False,,-122.35629,4.0,,{},False,2016.828,,47.72631,2057476606,754990.0,754990.0,3599,,False,-1,1692860400000,False,True,https://photos.zillowstatic.com/fp/e46319bab23a1d3add302739dcec9469-p_e.jpg,False,TOWNHOUSE,RECENTLY_SOLD,WA,13343 D Greenwood Avenue N,98133,RECENTLY_SOLD,1751.0,False,USA,,sqft,755500,Seattle,,False,4.0,,USD
,False,,-122.301445,3.0,,{},False,,,47.58389,2057657977,739990.0,739990.0,1917,,False,-1,1692860400000,False,True,https://photos.zillowstatic.com/fp/f3bd193ec9434fcd09c2dd8f2aaa3009-p_e.jpg,False,TOWNHOUSE,RECENTLY_SOLD,WA,2022 24th Avenue S,98144,RECENTLY_SOLD,1670.0,False,USA,,,740700,Seattle,,False,3.0,,USD
,False,,-122.31222,2.0,29816205,{'is_newHome': True},False,522.72,,47.63369,2061569650,864000.0,899950.0,3650,BUILDER_SPEC,False,-1,1692860400000,False,True,https://photos.zillowstatic.com/fp/0ffefb79233d7e33956411f030c4ec4e-p_e.jpg,False,TOWNHOUSE,RECENTLY_SOLD,WA,1540 15th Ave E,98112,FOR_SALE,1243.0,False,USA,,sqft,864500,Seattle,,False,2.0,,USD
,False,,-122.32205,5.0,,{},False,4499.748,,47.52456,2068202421,724750.0,724750.0,4860,,False,-1,1692860400000,False,True,https://photos.zillowstatic.com/fp/0c3db05b253ad90918f2775b06b83853-p_e.jpg,False,SINGLE_FAMILY,RECENTLY_SOLD,WA,821 S Trenton Street,98108,RECENTLY_SOLD,3376.0,False,USA,,sqft,725000,Seattle,,False,3.0,,USD
,False,,-122.401474,13.0,,{},False,8420.148,,47.66807,2069663989,2900000.0,2900000.0,7779,,False,-1,1692860400000,False,True,https://photos.zillowstatic.com/fp/4c84e0400f63338ecc8dcf8c4ad4f53c-p_e.jpg,False,MULTI_FAMILY,RECENTLY_SOLD,WA,5401 34th Avenue NW,98107,RECENTLY_SOLD,7568.0,False,USA,,sqft,2900900,Seattle,,False,10.0,,USD
,False,,-122.37001,2.0,,{},False,,,47.54837,2091492547,512000.0,512000.0,1397,,False,-1,1692860400000,False,True,https://photos.zillowstatic.com/fp/9fdc55b6032d0a6d2424f636cf124d0e-p_e.jpg,False,TOWNHOUSE,RECENTLY_SOLD,WA,2900 SW Raymond Street,98126,RECENTLY_SOLD,964.0,False,USA,,,512200,Seattle,,False,2.0,,USD
865000.0,False,,-122.35921,2.0,,{},False,3750.516,,47.67708,48832252,775000.0,775000.0,3496,,False,-1,1692774000000,False,True,https://photos.zillowstatic.com/fp/06878ef264f418dc00c6600fbe4524e8-p_e.jpg,False,SINGLE_FAMILY,RECENTLY_SOLD,WA,6536 2nd Avenue NW,98117,RECENTLY_SOLD,1960.0,False,USA,,sqft,775100,Seattle,,False,1.0,,USD
890000.0,False,,-122.39083,4.0,,{},False,5000.688,,47.54298,48906244,807000.0,807000.0,3994,,False,-1,1692774000000,False,True,https://photos.zillowstatic.com/fp/778b738190a2fda858a1b37a871770c9-p_e.jpg,False,SINGLE_FAMILY,RECENTLY_SOLD,WA,6700 HOLLY Place SW,98136,RECENTLY_SOLD,2045.0,False,USA,,sqft,807700,Seattle,,False,3.0,,USD
870000.0,False,,-122.3771,5.0,,{},False,9025.632,,47.539078,48934017,930000.0,930000.0,4300,,False,-1,1692774000000,False,True,https://photos.zillowstatic.com/fp/9e833695390d347f43f3a2e77c863e80-p_e.jpg,False,SINGLE_FAMILY,RECENTLY_SOLD,WA,7103 35th Avenue SW,98126,RECENTLY_SOLD,2760.0,False,USA,,sqft,930400,Seattle,,False,2.0,,USD
1772000.0,False,,-122.27879,3.0,,{},False,3724.38,,47.63744,48937035,2260000.0,2260000.0,6037,,False,-1,1692774000000,False,True,https://photos.zillowstatic.com/fp/c38dfd8391e0cc30d6c78d9d310390b5-p_e.jpg,False,SINGLE_FAMILY,RECENTLY_SOLD,WA,2015 42nd Avenue E,98112,RECENTLY_SOLD,2160.0,False,USA,,sqft,2249700,Seattle,,False,3.0,,USD
506000.0,False,,-122.31841,3.0,,{},False,6380.0,,47.69473,48945845,825000.0,825000.0,3200,,False,-1,1692774000000,False,True,https://photos.zillowstatic.com/fp/daf186fc6609d0ad6d25ce24e3adc05a-p_e.jpg,False,SINGLE_FAMILY,RECENTLY_SOLD,WA,845 NE 91st St,98115,RECENTLY_SOLD,1240.0,False,USA,,sqft,,Seattle,,False,1.0,,USD
1611000.0,False,,-122.351974,4.0,,{},False,7200.468,,47.628647,48963572,2300000.0,2300000.0,5764,,False,-1,1692774000000,False,True,https://photos.zillowstatic.com/fp/130a23e689f557a006c06ea2cbf80483-p_e.jpg,False,SINGLE_FAMILY,RECENTLY_SOLD,WA,217 Prospect Street,98109,RECENTLY_SOLD,3350.0,False,USA,,sqft,2300400,Seattle,,False,3.0,,USD
723000.0,False,,-122.29367,3.0,,{},False,4412.628,,47.694614,48972439,1095000.0,1095000.0,3200,,False,-1,1692774000000,False,True,https://photos.zillowstatic.com/fp/9fdf38c7b91d8fe90b92af1fd1e0210d-p_e.jpg,False,SINGLE_FAMILY,RECENTLY_SOLD,WA,9025 32nd Avenue NE,98115,RECENTLY_SOLD,1400.0,False,USA,,sqft,1095500,Seattle,,False,2.0,,USD
548000.0,False,,-122.34843,3.0,,{},False,5079.096,,47.531265,49072947,475.0,475.0,2500,,False,-1,1692774000000,False,True,https://photos.zillowstatic.com/fp/a51c492b80592d1f97664b8b008131ae-p_e.jpg,False,SINGLE_FAMILY,RECENTLY_SOLD,WA,7921 10th Avenue SW,98106,RECENTLY_SOLD,1090.0,False,USA,,sqft,544200,Seattle,,False,2.0,,USD
777000.0,False,,-122.29197,3.0,,{},False,3057.912,,47.685802,49074089,1132800.0,1132800.0,3350,,False,-1,1692774000000,False,True,https://photos.zillowstatic.com/fp/aa60b57b0ba41209125bec44ac844325-p_e.jpg,False,SINGLE_FAMILY,RECENTLY_SOLD,WA,7731 34th Avenue NE,98115,RECENTLY_SOLD,1237.0,False,USA,,sqft,1133300,Seattle,,False,2.0,,USD
846000.0,False,,-122.30245,5.0,,{},False,2787.84,,47.610413,49114847,920000.0,920000.0,4749,,False,-1,1692774000000,False,True,https://photos.zillowstatic.com/fp/feb928c02fc1853235fd2b0c3bb002a9-p_e.jpg,False,SINGLE_FAMILY,RECENTLY_SOLD,WA,910 23rd Avenue,98122,RECENTLY_SOLD,1940.0,False,USA,,sqft,920200,Seattle,,False,3.0,,USD
565000.0,False,,-122.39355,2.0,,{},False,,,47.511463,49121353,615000.0,615000.0,1669,,False,-1,1692774000000,False,True,https://photos.zillowstatic.com/fp/4043a86a058c8f75a0881d0044cdb91b-p_e.jpg,False,CONDO,RECENTLY_SOLD,WA,10203 47th Avenue SW UNIT B19,98146,RECENTLY_SOLD,1202.0,False,USA,Apt B19,,615100,Seattle,,False,2.0,,USD
883000.0,False,,-122.34961,3.0,,{},False,4591.224,,47.692905,49122882,1190000.0,1190000.0,4049,,False,-1,1692774000000,False,True,https://photos.zillowstatic.com/fp/88c0b4c56dd4751348c610e55506d736-p_e.jpg,False,SINGLE_FAMILY,RECENTLY_SOLD,WA,8800 Fremont Avenue N,98103,RECENTLY_SOLD,2269.0,False,USA,,sqft,1190200,Seattle,,False,2.0,,USD
1057000.0,False,,-122.39333,3.0,,{},False,7400.844,,47.583866,49124949,1322500.0,1322500.0,4250,,False,-1,1692774000000,False,True,https://photos.zillowstatic.com/fp/bae74eaa144ee3425cd27626e24e8ab6-p_e.jpg,False,SINGLE_FAMILY,RECENTLY_SOLD,WA,4807 SW Walker Street,98116,RECENTLY_SOLD,2400.0,False,USA,,sqft,1323100,Seattle,,False,2.0,,USD
695000.0,False,,-122.29689,2.0,,{},False,,,47.665676,63334726,755000.0,755000.0,1946,,False,-1,1692774000000,False,True,https://photos.zillowstatic.com/fp/b6ca2089a6168853735c816284b810d2-p_e.jpg,False,CONDO,RECENTLY_SOLD,WA,2901 NE Blakeley Street UNIT 428,98105,RECENTLY_SOLD,1078.0,False,USA,Apt 428,,755400,Seattle,,False,2.0,,USD
,False,,-122.31809,2.0,,{},False,2195.424,,47.694828,2056260191,825000.0,825000.0,2850,,False,-1,1692774000000,False,True,https://photos.zillowstatic.com/fp/15c494678731eab9f784a0752c96ef1b-p_e.jpg,False,SINGLE_FAMILY,RECENTLY_SOLD,WA,847 NE 91st Street,98115,RECENTLY_SOLD,1079.0,False,USA,,sqft,825400,Seattle,,False,2.0,,USD
,False,,-122.30143,3.0,,{},False,,,47.585056,2057658064,759990.0,759990.0,1961,,False,-1,1692774000000,False,True,https://photos.zillowstatic.com/fp/80c6cba35efd384c4d3452500b1ea1e7-p_e.jpg,False,TOWNHOUSE,RECENTLY_SOLD,WA,2012 24th Avenue S,98144,RECENTLY_SOLD,1670.0,False,USA,,,759400,Seattle,,False,3.0,,USD
,False,,-122.34565,2.0,,{},False,2130.084,,47.518436,2057888951,485000.0,485000.0,2600,,False,-1,1692774000000,False,True,https://photos.zillowstatic.com/fp/d7915d207c9de8baca18b47ee6d9fe77-p_e.jpg,False,SINGLE_FAMILY,RECENTLY_SOLD,WA,9425 8th Avenue SW UNIT A,98106,RECENTLY_SOLD,992.0,False,USA,# A,sqft,485100,Seattle,,False,2.0,,USD
757000.0,False,,-122.36646,2.0,,{},False,8102.16,,47.70334,48653006,795000.0,795000.0,2999,,False,-1,1692687600000,False,True,https://photos.zillowstatic.com/fp/1c943fcb26875e7935fc5b2e83a7f750-p_e.jpg,False,SINGLE_FAMILY,RECENTLY_SOLD,WA,10063 8th Avenue NW,98177,RECENTLY_SOLD,1370.0,False,USA,,sqft,795300,Seattle,,False,1.0,,USD
265000.0,False,,-122.32492,1.0,,{},False,,,47.618317,48657888,349000.0,349000.0,924,,False,-1,1692687600000,False,True,https://photos.zillowstatic.com/fp/c000ca80f880c937f90755b514a7430d-p_e.jpg,False,CONDO,RECENTLY_SOLD,WA,505 E Denny Way UNIT A207,98122,RECENTLY_SOLD,501.0,False,USA,# A207,,349100,Seattle,,False,1.0,,USD
1308000.0,False,,-122.29251,5.0,,{},False,4791.0,,47.67232,48765442,1500000.0,1500000.0,4997,,False,-1,1692687600000,False,True,https://photos.zillowstatic.com/fp/0d656a91b5f017085e2747656a053e9a-p_e.jpg,False,SINGLE_FAMILY,RECENTLY_SOLD,WA,3216 NE 60th St,98115,RECENTLY_SOLD,2690.0,False,USA,,sqft,1498600,Seattle,,False,3.0,,USD
1638000.0,False,,-122.34811,2.0,,{},False,3920.0,,47.53384,48778087,1750000.0,1750000.0,2700,,False,-1,1692687600000,False,True,https://photos.zillowstatic.com/fp/e92131da0756c2186c30039fcf0ba94a-p_e.jpg,False,SINGLE_FAMILY,RECENTLY_SOLD,WA,917 SW Holden St,98106,RECENTLY_SOLD,980.0,False,USA,,sqft,1735900,Seattle,,False,1.0,,USD
1050000.0,False,,-122.27286,2.0,,{},False,7801.596,,47.666973,48907630,1100000.0,1100000.0,3200,,False,-1,1692687600000,False,True,https://photos.zillowstatic.com/fp/b750b4fcb4a2d73321a2436536d21f4c-p_e.jpg,False,SINGLE_FAMILY,RECENTLY_SOLD,WA,5217 Ivanhoe Place NE,98105,RECENTLY_SOLD,1900.0,False,USA,,sqft,1100400,Seattle,,False,1.0,,USD
895000.0,False,,-122.30776,3.0,,{},False,5400.0,,47.62284,48930288,1500000.0,1500000.0,3495,,False,-1,1692687600000,False,True,https://photos.zillowstatic.com/fp/61c8a56384ac0139be135b63b80cd000-p_e.jpg,False,SINGLE_FAMILY,RECENTLY_SOLD,WA,425 19th Ave E,98112,RECENTLY_SOLD,1400.0,False,USA,,sqft,1134800,Seattle,,False,1.0,,USD
965000.0,False,,-122.37763,4.0,,{},False,6059.196,,47.537197,48934019,985000.0,985000.0,3999,,False,-1,1692687600000,False,True,https://photos.zillowstatic.com/fp/a5243150fff8c5d144de428d5eb1c386-p_e.jpg,False,SINGLE_FAMILY,RECENTLY_SOLD,WA,3519 SW Othello Street,98126,RECENTLY_SOLD,2640.0,False,USA,,sqft,985400,Seattle,,False,2.0,,USD
913000.0,False,,-122.31554,3.0,,{},False,5471.136,,47.695663,48945945,1000000.0,1000000.0,3497,,False,-1,1692687600000,False,True,https://photos.zillowstatic.com/fp/5fe683a0ac0aac40a8849087296ca495-p_e.jpg,False,SINGLE_FAMILY,RECENTLY_SOLD,WA,1049 NE 92nd Street,98115,RECENTLY_SOLD,1510.0,False,USA,,sqft,1000400,Seattle,,False,3.0,,USD
1077000.0,False,,-122.4019,4.0,,{},False,5998.212,,47.65179,49009565,1150000.0,1150000.0,4927,,False,-1,1692687600000,False,True,https://photos.zillowstatic.com/fp/1470501da102ea3e7cc542eaad9c69d2-p_e.jpg,False,SINGLE_FAMILY,RECENTLY_SOLD,WA,3444 35th Avenue W,98199,RECENTLY_SOLD,2490.0,False,USA,,sqft,1150400,Seattle,,False,3.0,,USD
602000.0,False,,-122.25787,3.0,,{},False,5649.732,,47.513798,49016743,719950.0,719950.0,2622,,False,-1,1692687600000,False,True,https://photos.zillowstatic.com/fp/21ff5520ad3240944544e2529a5c9b67-p_e.jpg,False,SINGLE_FAMILY,RECENTLY_SOLD,WA,9748 60th Avenue S,98118,RECENTLY_SOLD,1180.0,False,USA,,sqft,720200,Seattle,,False,2.0,,USD
403000.0,False,,-122.34254,1.0,,{},False,,,47.613537,49038422,380000.0,380000.0,1017,,False,-1,1692687600000,False,True,https://photos.zillowstatic.com/fp/c5e82829cae72077a520506592f674c8-p_e.jpg,False,CONDO,RECENTLY_SOLD,WA,2100 3rd Avenue UNIT 2106,98121,RECENTLY_SOLD,773.0,False,USA,Apt 2106,,392700,Seattle,,False,1.0,,USD
572000.0,False,,-122.32926,2.0,,{},False,,,47.609287,49038753,590000.0,590000.0,2705,,False,-1,1692687600000,False,True,https://photos.zillowstatic.com/fp/c9003c7e398cd6bf8ad176899333c057-p_e.jpg,False,CONDO,RECENTLY_SOLD,WA,1120 8th Avenue UNIT 1601,98101,RECENTLY_SOLD,1060.0,False,USA,Apt 1601,,,Seattle,,False,2.0,,USD
748000.0,False,,-122.38593,3.0,,{},False,3336.696,,47.55835,49046870,895000.0,895000.0,3499,,False,-1,1692687600000,False,True,https://photos.zillowstatic.com/fp/0c5c34453c4bbc98fbf9b05124b403ca-p_e.jpg,False,SINGLE_FAMILY,RECENTLY_SOLD,WA,4833 42nd Avenue SW,98116,RECENTLY_SOLD,1780.0,False,USA,,sqft,895300,Seattle,,False,2.0,,USD
2830000.0,False,,-122.40059,3.0,,{},False,7165.62,,47.55636,49069905,3300000.0,3300000.0,8683,,False,-1,1692687600000,False,True,https://photos.zillowstatic.com/fp/e73ccd86fc9f8bde7a5fe8bac9c6d4eb-p_e.jpg,False,SINGLE_FAMILY,RECENTLY_SOLD,WA,5049 Beach Drive SW,98136,RECENTLY_SOLD,4162.0,False,USA,,sqft,3301200,Seattle,,False,3.0,,USD
649000.0,False,,-122.31284,3.0,,{},False,5111.0,,47.69918,49076434,650000.0,650000.0,2800,,False,-1,1692687600000,False,True,https://photos.zillowstatic.com/fp/07393bd04c568cd11f5d84f49970a4be-p_e.jpg,False,SINGLE_FAMILY,RECENTLY_SOLD,WA,1247 NE 97th St,98115,RECENTLY_SOLD,1030.0,False,USA,,sqft,709100,Seattle,,False,1.0,,USD
1247000.0,False,,-122.28846,4.0,,{},False,3044.844,,47.61779,49114005,1525000.0,1525000.0,4999,,False,-1,1692687600000,False,True,https://photos.zillowstatic.com/fp/fb6f23d6b00ca2edbe3f8c50d9af0234-p_e.jpg,False,SINGLE_FAMILY,RECENTLY_SOLD,WA,3412 E Howell Street,98122,RECENTLY_SOLD,2180.0,False,USA,,sqft,1525500,Seattle,,False,4.0,,USD
854000.0,False,,-122.330734,3.0,,{},False,3402.036,,47.656475,49116389,990000.0,990000.0,3994,,False,-1,1692687600000,False,True,https://photos.zillowstatic.com/fp/49494c3dcec36d91b668de774daffdc4-p_e.jpg,False,SINGLE_FAMILY,RECENTLY_SOLD,WA,2315 N 41st Street,98103,RECENTLY_SOLD,1510.0,False,USA,,sqft,990600,Seattle,,False,2.0,,USD
1348000.0,False,,-122.40235,2.0,,{},False,,,47.5585,58388797,1480600.0,1480600.0,2836,,False,-1,1692687600000,False,True,https://photos.zillowstatic.com/fp/b9327df2a163031cc71128c170e0c503-p_e.jpg,False,TOWNHOUSE,RECENTLY_SOLD,WA,4841 Beach Drive SW UNIT 4843,98116,RECENTLY_SOLD,2111.0,False,USA,# 4843,,1481100,Seattle,,False,2.0,,USD
750000.0,False,,-122.294205,3.0,,{},False,1611.72,,47.592815,60258593,889000.0,889000.0,3569,,False,-1,1692687600000,False,True,https://photos.zillowstatic.com/fp/25e9d5e039da25e9cb48fd407485fb10-p_e.jpg,False,TOWNHOUSE,RECENTLY_SOLD,WA,1134 Yakima Avenue S,98144,RECENTLY_SOLD,1640.0,False,USA,,sqft,891300,Seattle,,False,3.0,,USD
,False,,-122.35083,2.0,,{'is_FSBO': True},False,1977.624,,47.690117,2056397054,765000.0,775000.0,3499,,False,-1,1692687600000,False,True,https://photos.zillowstatic.com/fp/46734195d0bc21d87764c616980ec61d-p_e.jpg,False,CONDO,RECENTLY_SOLD,WA,536C N 84th St,98103,FOR_SALE,1326.0,False,USA,,sqft,765300,Seattle,,False,2.0,,USD
,False,,-122.27709,4.0,,{},False,3267.0,,47.66475,2057592337,2000000.0,2000000.0,5477,,False,-1,1692687600000,False,True,https://photos.zillowstatic.com/fp/fc655dc1bb1990f16fbca663459fecd8-p_e.jpg,False,SINGLE_FAMILY,RECENTLY_SOLD,WA,4707 NE 50th Street,98105,RECENTLY_SOLD,2865.0,False,USA,,sqft,2000700,Seattle,,False,4.0,,USD
,False,,-122.30143,3.0,,{},False,,,47.585007,2057661083,729990.0,729990.0,1885,,False,-1,1692687600000,False,True,https://photos.zillowstatic.com/fp/0e0fd3c415bd58ded8c2237f1ebf65c3-p_e.jpg,False,TOWNHOUSE,RECENTLY_SOLD,WA,2014 24th Avenue S,98144,RECENTLY_SOLD,1670.0,False,USA,,,730300,Seattle,,False,3.0,,USD
,False,,-122.32173,3.0,,{},False,740.52,,47.54317,2090992198,580000.0,580000.0,3249,,False,-1,1692687600000,False,True,https://photos.zillowstatic.com/fp/86e55aba6a90d8b75b22956f1cf43d17-p_e.jpg,False,TOWNHOUSE,RECENTLY_SOLD,WA,6637 Carleton Avenue S UNIT C,98108,RECENTLY_SOLD,1370.0,False,USA,# C,sqft,580200,Seattle,,False,3.0,,USD
,False,,-122.3651,3.0,,{},False,,,47.7042,2110517451,599950.0,599950.0,2267,,False,-1,1692687600000,False,True,https://photos.zillowstatic.com/fp/6e69bf932bf676d64b222be0821150e9-p_e.jpg,False,APARTMENT,RECENTLY_SOLD,WA,10429 Alderbrook Pl NW,98177,RECENTLY_SOLD,1100.0,False,USA,,,,Seattle,,False,1.0,,USD
1118000.0,False,,-122.29433,5.0,,{},False,3240.864,,47.5839,48737483,1450000.0,1450000.0,4950,,False,-1,1692601200000,False,True,https://photos.zillowstatic.com/fp/1ef8cc664244d505841d7fd33bd64550-p_e.jpg,False,SINGLE_FAMILY,RECENTLY_SOLD,WA,2117 30th Avenue S,98144,RECENTLY_SOLD,2790.0,False,USA,,sqft,1450800,Seattle,,False,3.0,,USD
2127000.0,False,,-122.368095,3.0,,{},False,3598.056,,47.634422,48764151,2425000.0,2425000.0,6340,,False,-1,1692601200000,False,True,https://photos.zillowstatic.com/fp/d5d9954c17fd3123746e8644fb64fc7c-p_e.jpg,False,SINGLE_FAMILY,RECENTLY_SOLD,WA,1629 8th Avenue W,98119,RECENTLY_SOLD,3970.0,False,USA,,sqft,2426300,Seattle,,False,4.0,,USD
948000.0,False,,-122.39335,2.0,,{},False,4033.656,,47.637127,48791942,1032000.0,1032000.0,4500,,False,-1,1692601200000,False,True,https://photos.zillowstatic.com/fp/e189afc0664c2a0d3eb9b9c4a9f980f9-p_e.jpg,False,SINGLE_FAMILY,RECENTLY_SOLD,WA,2013 28th Avenue W,98199,RECENTLY_SOLD,2170.0,False,USA,,sqft,1032600,Seattle,,False,2.0,,USD
815000.0,False,,-122.38115,4.0,,{},False,1376.496,,47.672874,48823345,995000.0,995000.0,4300,,False,-1,1692601200000,False,True,https://photos.zillowstatic.com/fp/a4554a64b405a8426a40ad052b8024ef-p_e.jpg,False,TOWNHOUSE,RECENTLY_SOLD,WA,1751 NW 61st Street,98107,RECENTLY_SOLD,1752.0,False,USA,,sqft,995200,Seattle,,False,5.0,,USD
884000.0,False,,-122.35762,5.0,,{},False,3219.084,,47.692726,48836443,630000.0,630000.0,3599,,False,-1,1692601200000,False,True,https://photos.zillowstatic.com/fp/710ebb884ba6d3598840d37f14eceb9a-p_e.jpg,False,SINGLE_FAMILY,RECENTLY_SOLD,WA,8708 1st Avenue NW,98117,RECENTLY_SOLD,1950.0,False,USA,,sqft,630300,Seattle,,False,1.0,,USD
1114000.0,False,,-122.265785,3.0,,{},False,5026.824,,47.673035,48851342,1100000.0,1100000.0,3650,,False,-1,1692601200000,False,True,https://photos.zillowstatic.com/fp/9a0c90be0c2e6c7a5890482b012174d7-p_e.jpg,False,SINGLE_FAMILY,RECENTLY_SOLD,WA,5706 NE 61 Street,98115,RECENTLY_SOLD,1720.0,False,USA,,sqft,1100200,Seattle,,False,2.0,,USD
515000.0,False,,-122.35432,2.0,,{},False,5218.488,,47.52251,48859002,475000.0,475000.0,2500,,False,-1,1692601200000,False,True,https://photos.zillowstatic.com/fp/cde21b4ca616b10eddcc55ab72da849d-p_e.jpg,False,SINGLE_FAMILY,RECENTLY_SOLD,WA,9011 15th Avenue SW,98106,RECENTLY_SOLD,1580.0,False,USA,,sqft,480200,Seattle,,False,1.0,,USD
922000.0,False,,-122.3346,3.0,,{},False,6699.528,,47.72755,48985514,881000.0,881000.0,3949,,False,-1,1692601200000,False,True,https://photos.zillowstatic.com/fp/27393f286f779a3febc414610093675a-p_e.jpg,False,SINGLE_FAMILY,RECENTLY_SOLD,WA,13523 Meridian Avenue N,98133,RECENTLY_SOLD,2561.0,False,USA,,sqft,881500,Seattle,,False,2.0,,USD
745000.0,False,,-122.300865,3.0,,{},False,9657.252,,47.72859,48991382,769000.0,769000.0,3980,,False,-1,1692601200000,False,True,https://photos.zillowstatic.com/fp/75a74f3916ce56a6987d616e9da2c486-p_e.jpg,False,SINGLE_FAMILY,RECENTLY_SOLD,WA,2516 NE 137th Street,98125,RECENTLY_SOLD,2740.0,False,USA,,sqft,771300,Seattle,,False,2.0,,USD
1111000.0,False,,-122.28981,3.0,,{},False,5000.688,,47.68501,48993703,1125000.0,1125000.0,3800,,False,-1,1692601200000,False,True,https://photos.zillowstatic.com/fp/b5b444e81d7ad0fea72e5788c38ce28c-p_e.jpg,False,SINGLE_FAMILY,RECENTLY_SOLD,WA,7703 36th Avenue NE,98115,RECENTLY_SOLD,2000.0,False,USA,,sqft,1126300,Seattle,,False,2.0,,USD
579000.0,False,,-122.3231,2.0,,{},False,7801.596,,47.720554,48995086,515000.0,515000.0,2600,,False,-1,1692601200000,False,True,https://photos.zillowstatic.com/fp/c46b2c22ad3403ccd63bf20119144ee0-p_e.jpg,False,SINGLE_FAMILY,RECENTLY_SOLD,WA,12534 5th Avenue NE,98125,RECENTLY_SOLD,961.0,False,USA,,sqft,515300,Seattle,,False,1.0,,USD
490000.0,False,,-122.30399,2.0,,{},False,2539.548,,47.614677,49025657,450000.0,450000.0,2995,,False,-1,1692601200000,False,True,https://photos.zillowstatic.com/fp/dc028cf62e7e20e0591491955bca4d2a-p_e.jpg,False,SINGLE_FAMILY,RECENTLY_SOLD,WA,1459 22nd Avenue,98122,RECENTLY_SOLD,940.0,False,USA,,sqft,450200,Seattle,,False,1.0,,USD
969000.0,False,,-122.27231,5.0,,{},False,7296.3,,47.54619,49082777,915000.0,915000.0,3994,,False,-1,1692601200000,False,True,https://photos.zillowstatic.com/fp/2e41d75523ddaa02b933c30db564ff50-p_e.jpg,False,SINGLE_FAMILY,RECENTLY_SOLD,WA,6228 48th Ave S,98118,RECENTLY_SOLD,2310.0,False,USA,,sqft,915500,Seattle,,False,4.0,,USD
998000.0,False,,-122.30489,3.0,,{},False,1960.2,,47.62337,49085567,800000.0,800000.0,4900,,False,-1,1692601200000,False,True,https://photos.zillowstatic.com/fp/ec6b26d4aa723b41acb8e98d60086545-p_e.jpg,False,SINGLE_FAMILY,RECENTLY_SOLD,WA,2022 E Republican Street,98112,RECENTLY_SOLD,2160.0,False,USA,,sqft,800400,Seattle,,False,3.0,,USD
630000.0,False,,-122.336685,2.0,,{},False,6830.208,,47.65115,49115313,690000.0,690000.0,3300,,False,-1,1692601200000,False,True,https://photos.zillowstatic.com/fp/1576a840cd4ff5ae5489e64c9ce93fc3-p_e.jpg,False,CONDO,RECENTLY_SOLD,WA,3621 Wallingford Avenue N UNIT 101,98103,RECENTLY_SOLD,1215.0,False,USA,Apt 101,sqft,690100,Seattle,,False,2.0,,USD
861000.0,False,,-122.39,4.0,,{},False,4024.944,,47.587357,49124186,1150000.0,1150000.0,4243,,False,-1,1692601200000,False,True,https://photos.zillowstatic.com/fp/10a2af05fe2cda9c15a1d0ffe314f0b2-p_e.jpg,False,SINGLE_FAMILY,RECENTLY_SOLD,WA,1722 46th Avenue SW,98116,RECENTLY_SOLD,2255.0,False,USA,,sqft,1150200,Seattle,,False,2.0,,USD
575000.0,False,,-122.31303,4.0,,{},False,1559.448,,47.55233,70580710,648000.0,648000.0,3355,,False,-1,1692601200000,False,True,https://photos.zillowstatic.com/fp/6909b16af8066e409a8e8e2f7c111a14-p_e.jpg,False,SINGLE_FAMILY,RECENTLY_SOLD,WA,5536 15th Avenue S,98108,RECENTLY_SOLD,1610.0,False,USA,,sqft,658300,Seattle,,False,4.0,,USD
720000.0,False,,-122.344894,2.0,,{},False,1258.884,,47.650837,83231252,782500.0,782500.0,3549,,False,-1,1692601200000,False,True,https://photos.zillowstatic.com/fp/8051407164700293a28cf673b69e7578-p_e.jpg,False,TOWNHOUSE,RECENTLY_SOLD,WA,3603 Albion Place N,98103,RECENTLY_SOLD,1140.0,False,USA,,sqft,783400,Seattle,,False,2.0,,USD
525000.0,False,,-122.35585,3.0,,{},False,611.0,,47.70728,84759618,560000.0,560000.0,2700,,False,-1,1692601200000,False,True,"https://maps.googleapis.com/maps/api/staticmap?mobile=false&sensor=true&maptype=satellite&size=575x242&zoom=17&center=47.707279205322266,-122.35585021972656&key=AIzaSyBJsNQO5ZeG-XAbqqWLKwG08fWITSxg33w&signature=wWbLulLXXHzwz_Iyf9SUse4EkgY=",False,TOWNHOUSE,RECENTLY_SOLD,WA,10711-1B Greenwood Ave N,98133,RECENTLY_SOLD,1140.0,False,USA,,sqft,560400,Seattle,,False,2.5,,USD
1563000.0,False,,-122.275826,5.0,,{},False,6817.14,,47.67039,108835547,3150000.0,3150000.0,6499,,False,-1,1692601200000,False,True,https://photos.zillowstatic.com/fp/3407d09b6c189954c6c8b7346c6ed785-p_e.jpg,False,SINGLE_FAMILY,RECENTLY_SOLD,WA,4815 Stanford Avenue NE,98105,RECENTLY_SOLD,4303.0,False,USA,,sqft,3152500,Seattle,,False,4.0,,USD
797000.0,False,,-122.28484,3.0,,{},False,2199.78,,47.7113,118557225,825000.0,825000.0,3097,,False,-1,1692601200000,False,True,https://photos.zillowstatic.com/fp/95922debd0b219729f5146232f833868-p_e.jpg,False,SINGLE_FAMILY,RECENTLY_SOLD,WA,11336 40th Avenue NE,98125,RECENTLY_SOLD,1300.0,False,USA,,sqft,825400,Seattle,,False,3.0,,USD
109000.0,False,,-122.32902,1.0,,{},False,0.9088613406795225,,47.612293,241739347,85000.0,85000.0,943,,False,-1,1692601200000,False,True,https://photos.zillowstatic.com/fp/d3abfe9aba2aa361da30842a00e5e582-p_e.jpg,False,APARTMENT,RECENTLY_SOLD,WA,1000 Union St,98101,RECENTLY_SOLD,677.0,False,USA,,acres,,Seattle,,False,1.0,,USD
582000.0,False,,-122.32171,2.0,,{},False,740.0,,47.543236,248856984,580000.0,580000.0,2984,,False,-1,1692601200000,False,True,"https://maps.googleapis.com/maps/api/staticmap?mobile=false&sensor=true&maptype=satellite&size=575x242&zoom=17&center=47.543235778808594,-122.32170867919922&key=AIzaSyBJsNQO5ZeG-XAbqqWLKwG08fWITSxg33w&signature=1EBdh7VvOmA3Is5TwBcewaAwBIY=",False,TOWNHOUSE,RECENTLY_SOLD,WA,6637C Carleton Ave S,98108,RECENTLY_SOLD,1270.0,False,USA,,sqft,580500,Seattle,,False,1.5,,USD
,False,,-122.387695,,,{},False,7501.032,,47.543392,2055888135,2250000.0,2250000.0,,,False,-1,1692601200000,False,True,https://photos.zillowstatic.com/fp/ee761bf0c5f47f00fe4a7d9c5a10dcd4-p_e.jpg,False,MULTI_FAMILY,RECENTLY_SOLD,WA,6549 California Avenue SW,98136,RECENTLY_SOLD,6160.0,False,USA,,sqft,2252500,Seattle,,False,,,USD
,False,,-122.348854,3.0,,{},False,1868.724,,47.651737,2056198492,989950.0,989950.0,4194,,False,-1,1692601200000,False,True,https://photos.zillowstatic.com/fp/b8183c3adaf30b43a01d1326627f24bd-p_e.jpg,False,TOWNHOUSE,RECENTLY_SOLD,WA,3623 A Linden Avenue N,98103,RECENTLY_SOLD,1479.0,False,USA,,sqft,990500,Seattle,,False,3.0,,USD
,False,,-122.31062,2.0,,{},False,1.0,,47.58188,2056510617,639950.0,639950.0,3149,,False,-1,1692601200000,False,True,https://photos.zillowstatic.com/fp/be7d69e3366c8c36e08d42f5c8036f84-p_e.jpg,False,CONDO,RECENTLY_SOLD,WA,2338 17th Avenue S UNIT B,98144,RECENTLY_SOLD,1073.0,False,USA,# B,sqft,640100,Seattle,,False,2.0,,USD
,False,,-122.344536,2.0,,{},False,,,47.61837,2057088634,1750000.0,1750000.0,2575,,False,-1,1692601200000,False,True,https://photos.zillowstatic.com/fp/dad7aff2716280e3c40789290ab05eae-p_e.jpg,False,CONDO,RECENTLY_SOLD,WA,2510 6th Avenue UNIT 2508,98121,RECENTLY_SOLD,1188.0,False,USA,Unit 2508,,1750300,Seattle,,False,2.0,,USD
,False,,-122.373566,1.0,,{},False,,,47.53569,2057336288,450000.0,450000.0,1337,,False,-1,1692601200000,False,True,https://photos.zillowstatic.com/fp/5d4bb4501645eaa9e474f3d855b8264d-p_e.jpg,False,CONDO,RECENTLY_SOLD,WA,3114 SW Webster Street,98126,RECENTLY_SOLD,699.0,False,USA,,,450200,Seattle,,False,2.0,,USD
,False,,-122.355774,3.0,,{},False,609.84,,47.707245,2068107725,560000.0,560000.0,2700,,False,-1,1692601200000,False,True,https://photos.zillowstatic.com/fp/5fe9a6c421f0f25e40c67736fbfde18b-p_e.jpg,False,TOWNHOUSE,RECENTLY_SOLD,WA,10711 Greenwood Avenue N UNIT B,98133,RECENTLY_SOLD,1140.0,False,USA,Unit B,sqft,562600,Seattle,,False,3.0,,USD
964000.0,False,,-122.29943,3.0,,{},False,1742.0,,47.58818,48663639,1175000.0,1175000.0,4099,,False,-1,1692342000000,False,True,https://photos.zillowstatic.com/fp/6685a81384ff518fd81272d726c7ee15-p_e.jpg,False,SINGLE_FAMILY,RECENTLY_SOLD,WA,1701 26th Ave S,98144,RECENTLY_SOLD,2227.0,False,USA,,sqft,1176500,Seattle,,False,4.0,,USD
863000.0,False,,-122.284996,3.0,,{},False,5662.8,,47.688736,48672056,700000.0,700000.0,3499,,False,-1,1692342000000,False,True,https://photos.zillowstatic.com/fp/fe3ab1e951f1e6e45b61ab9079c9f036-p_e.jpg,False,SINGLE_FAMILY,RECENTLY_SOLD,WA,8208 40th Avenue NE,98115,RECENTLY_SOLD,1800.0,False,USA,,sqft,866600,Seattle,,False,2.0,,USD
736000.0,False,,-122.36355,4.0,,{},False,4443.12,,47.691574,48697360,740000.0,740000.0,3497,,False,-1,1692342000000,False,True,https://photos.zillowstatic.com/fp/c3eb11b1690f117dedca5193fcf55572-p_e.jpg,False,SINGLE_FAMILY,RECENTLY_SOLD,WA,602 NW 86th St,98117,RECENTLY_SOLD,1450.0,False,USA,,sqft,740900,Seattle,,False,1.0,,USD
2191000.0,False,,-122.411804,4.0,,{},False,0.49820000000000003,,47.669277,48700956,2550000.0,2550000.0,6484,,False,-1,1692342000000,False,True,https://photos.zillowstatic.com/fp/b319f1e3adf6c363a95b4519c148f0c5-p_e.jpg,False,SINGLE_FAMILY,RECENTLY_SOLD,WA,5430 45th Avenue W,98199,RECENTLY_SOLD,5210.0,False,USA,,acres,2464300,Seattle,,False,3.0,,USD
705000.0,False,,-122.29483,3.0,,{},False,6438.168,,47.725506,48734932,595000.0,595000.0,3764,,False,-1,1692342000000,False,True,https://photos.zillowstatic.com/fp/bac096445a71f23dc44a7cd1d6d6edc0-p_e.jpg,False,SINGLE_FAMILY,RECENTLY_SOLD,WA,13325 31st Avenue NE,98125,RECENTLY_SOLD,2110.0,False,USA,,sqft,786000,Seattle,,False,2.0,,USD
210000.0,False,,-122.28986,3.0,,{},False,1681.416,,47.56474,48745413,899000.0,899000.0,3924,,False,-1,1692342000000,False,True,https://photos.zillowstatic.com/fp/4f8b2d91666585164d4c2bf3f7302ae8-p_e.jpg,False,TOWNHOUSE,RECENTLY_SOLD,WA,4225 B Letitia Avenue S,98118,RECENTLY_SOLD,1862.0,False,USA,,sqft,899600,Seattle,,False,3.0,,USD
1775000.0,False,,-122.28881,4.0,,{},False,9361.044,,47.605736,48754106,1550000.0,1550000.0,5200,,False,-1,1692342000000,False,True,https://photos.zillowstatic.com/fp/24861d99194e0b63c1620b7f512aa6fe-p_e.jpg,False,SINGLE_FAMILY,RECENTLY_SOLD,WA,3348 E Terrace Street,98122,RECENTLY_SOLD,2680.0,False,USA,,sqft,1550500,Seattle,,False,3.0,,USD
649000.0,False,,-122.39848,3.0,,{},False,5749.92,,47.563576,48795219,727000.0,727000.0,2650,,False,-1,1692342000000,False,True,https://photos.zillowstatic.com/fp/d442e89901de4f72025a2575a1bbafed-p_e.jpg,False,SINGLE_FAMILY,RECENTLY_SOLD,WA,4440 52nd Avenue SW,98116,RECENTLY_SOLD,930.0,False,USA,,sqft,727800,Seattle,,False,1.0,,USD
765000.0,False,,-122.31105,5.0,,{},False,2456.784,,47.577133,48844863,730000.0,730000.0,3249,,False,-1,1692342000000,False,True,https://photos.zillowstatic.com/fp/fd18df53e13556908a4e512f566bd298-p_e.jpg,False,SINGLE_FAMILY,RECENTLY_SOLD,WA,2917 17th Avenue S,98144,RECENTLY_SOLD,1460.0,False,USA,,sqft,730500,Seattle,,False,1.0,,USD
2069000.0,False,,-122.37326,2.0,,{},False,0.7001,,47.723778,48884453,2500000.0,2500000.0,6642,,False,-1,1692342000000,False,True,https://photos.zillowstatic.com/fp/30f66cfde9e843c79dcbb0c36d8a2dfc-p_e.jpg,False,SINGLE_FAMILY,RECENTLY_SOLD,WA,13015 13th Avenue NW,98177,RECENTLY_SOLD,2390.0,False,USA,,acres,2500800,Seattle,,False,2.0,,USD
613000.0,False,,-122.27425,3.0,,{},False,3201.66,,47.560776,48925772,670000.0,670000.0,3200,,False,-1,1692342000000,False,True,https://photos.zillowstatic.com/fp/ae7f149c92e71bb8b0c08f8e3758e0dc-p_e.jpg,False,SINGLE_FAMILY,RECENTLY_SOLD,WA,4702 S Alaska Street,98118,RECENTLY_SOLD,1540.0,False,USA,,sqft,670200,Seattle,,False,1.0,,USD
1430000.0,False,,-122.399376,8.0,,{},False,5998.212,,47.660233,48930744,1625000.0,1625000.0,2685,,False,-1,1692342000000,False,True,https://photos.zillowstatic.com/fp/9e33a9bfe6b8e5341cd0dbbdd11ebb46-p_e.jpg,False,MULTI_FAMILY,RECENTLY_SOLD,WA,3222 W Government Way,98199,RECENTLY_SOLD,3180.0,False,USA,,sqft,1625500,Seattle,,False,5.0,,USD
974000.0,False,,-122.27624,4.0,,{},False,7200.468,,47.56148,48954115,1175000.0,1175000.0,4094,,False,-1,1692342000000,False,True,https://photos.zillowstatic.com/fp/f88c3d4884b615343e6e22e7b65d4bdb-p_e.jpg,False,SINGLE_FAMILY,RECENTLY_SOLD,WA,4515 S Snoqualmie Street,98118,RECENTLY_SOLD,2242.0,False,USA,,sqft,1175400,Seattle,,False,3.0,,USD
804000.0,False,,-122.309105,7.0,,{},False,5998.212,,47.582268,48959476,905000.0,905000.0,4468,,False,-1,1692342000000,False,True,https://photos.zillowstatic.com/fp/d7af043221c4ce257ad6a6f106d17bd5-p_e.jpg,False,SINGLE_FAMILY,RECENTLY_SOLD,WA,2322 18th Avenue S,98144,RECENTLY_SOLD,2600.0,False,USA,,sqft,,Seattle,,False,2.0,,USD
663000.0,False,,-122.34571,2.0,,{},False,4804.0,,47.702667,48984992,715000.0,715000.0,2795,,False,-1,1692342000000,False,True,"https://maps.googleapis.com/maps/api/staticmap?mobile=false&sensor=true&maptype=satellite&size=575x242&zoom=17&center=47.702667236328125,-122.34571075439453&key=AIzaSyBJsNQO5ZeG-XAbqqWLKwG08fWITSxg33w&signature=xATFmxMRKfBwuC_DhcsYFPtYqx8=",False,SINGLE_FAMILY,RECENTLY_SOLD,WA,945 N 102nd St,98133,RECENTLY_SOLD,890.0,False,USA,,sqft,715900,Seattle,,False,1.0,,USD
651000.0,False,,-122.31985,3.0,,{},False,9378.468,,47.717384,48995005,620000.0,620000.0,2849,,False,-1,1692342000000,False,True,https://photos.zillowstatic.com/fp/36c1dcb39df0545829db8e6b292e15d0-p_e.jpg,False,SINGLE_FAMILY,RECENTLY_SOLD,WA,821 NE 123rd Street,98125,RECENTLY_SOLD,1200.0,False,USA,,sqft,620200,Seattle,,False,1.0,,USD
1649000.0,False,,-122.36658,4.0,,{},False,4952.772,,47.64707,49015093,2100000.0,2100000.0,5422,,False,-1,1692342000000,False,True,https://photos.zillowstatic.com/fp/b7b46da7ac981964ebc719c689b7b281-p_e.jpg,False,SINGLE_FAMILY,RECENTLY_SOLD,WA,707 W Florentia Place,98119,RECENTLY_SOLD,2653.0,False,USA,,sqft,2101800,Seattle,,False,4.0,,USD
1344000.0,False,,-122.312416,2.0,,{},False,7200.0,,47.610714,49027233,1600000.0,1600000.0,3399,,False,-1,1692342000000,False,True,https://photos.zillowstatic.com/fp/fc911841bd99cecab7132e21e2cd2f14-p_e.jpg,False,MANUFACTURED,RECENTLY_SOLD,WA,908 15th Ave,98122,RECENTLY_SOLD,1300.0,False,USA,,sqft,1170900,Seattle,,False,1.5,,USD
771000.0,False,,-122.38588,3.0,,{},False,3075.336,,47.679325,49041788,959500.0,959500.0,3999,,False,-1,1692342000000,False,True,https://photos.zillowstatic.com/fp/13a6f653358db44bf0c7602b36f6c529-p_e.jpg,False,SINGLE_FAMILY,RECENTLY_SOLD,WA,2311 NW 70th Street,98117,RECENTLY_SOLD,1830.0,False,USA,,sqft,960200,Seattle,,False,2.0,,USD
725000.0,False,,-122.30533,5.0,,{},False,9787.932,,47.718224,49054080,740000.0,740000.0,3800,,False,-1,1692342000000,False,True,https://photos.zillowstatic.com/fp/0cb859070af8e781b8b82deb0801ea5d-p_e.jpg,False,SINGLE_FAMILY,RECENTLY_SOLD,WA,12324 22nd Avenue NE,98125,RECENTLY_SOLD,2040.0,False,USA,,sqft,739600,Seattle,,False,2.0,,USD
715000.0,False,,-122.31344,3.0,,{},False,3358.476,,47.60414,49071225,816000.0,816000.0,3399,,False,-1,1692342000000,False,True,https://photos.zillowstatic.com/fp/4d85a8de31a57081cdd2f4fa28dcd1e2-p_e.jpg,False,MULTI_FAMILY,RECENTLY_SOLD,WA,1415 E Alder Street,98122,RECENTLY_SOLD,1250.0,False,USA,,sqft,816300,Seattle,,False,2.0,,USD
669000.0,False,,-122.39736,2.0,,{},False,4090.284,,47.640778,49084234,850000.0,850000.0,2862,,False,-1,1692342000000,False,True,https://photos.zillowstatic.com/fp/f0ff723ce9446e82da97bf6cd42e8790-p_e.jpg,False,SINGLE_FAMILY,RECENTLY_SOLD,WA,2441 31st Ave W,98199,RECENTLY_SOLD,930.0,False,USA,,sqft,851000,Seattle,,False,1.0,,USD
1057000.0,False,,-122.31107,4.0,,{},False,4321.152,,47.66968,49090865,840000.0,840000.0,3949,,False,-1,1692342000000,False,True,https://photos.zillowstatic.com/fp/83ab1d91da8862b64c4f34b1ae573f5d-p_e.jpg,False,SINGLE_FAMILY,RECENTLY_SOLD,WA,5607 16th Avenue NE,98105,RECENTLY_SOLD,1980.0,False,USA,,sqft,802200,Seattle,,False,2.0,,USD
911000.0,False,,-122.28555,3.0,,{},False,3402.036,,47.67412,49102382,1072500.0,1072500.0,3599,,False,-1,1692342000000,False,True,https://photos.zillowstatic.com/fp/f6d7feb77de8ca1ad9d80ee3976fdd85-p_e.jpg,False,SINGLE_FAMILY,RECENTLY_SOLD,WA,6202 39th Avenue NE,98115,RECENTLY_SOLD,1580.0,False,USA,,sqft,1072900,Seattle,,False,2.0,,USD
581000.0,False,,-122.38648,2.0,,{},False,5100.876,,47.535316,49120559,665000.0,665000.0,2700,,False,-1,1692342000000,False,True,https://photos.zillowstatic.com/fp/ec96dfc59b0f96611538e7e339cb12e3-p_e.jpg,False,SINGLE_FAMILY,RECENTLY_SOLD,WA,4140 SW Austin Street,98136,RECENTLY_SOLD,850.0,False,USA,,sqft,665500,Seattle,,False,1.0,,USD
537000.0,False,,-122.30314,3.0,,{},False,9600.624,,47.71521,49148713,760000.0,760000.0,2500,,False,-1,1692342000000,False,True,https://photos.zillowstatic.com/fp/a590696e8d30766c4d38f0fe3be89cd2-p_e.jpg,False,SINGLE_FAMILY,RECENTLY_SOLD,WA,11745 24th Ave NE,98125,RECENTLY_SOLD,810.0,False,USA,,sqft,760800,Seattle,,False,1.0,,USD
271000.0,False,,-122.38186,1.0,,{},False,,,47.558353,63925399,328000.0,328000.0,860,,False,-1,1692342000000,False,True,https://photos.zillowstatic.com/fp/dcad8aae06a00ecaecb8bc2c8b5fc07f-p_e.jpg,False,CONDO,RECENTLY_SOLD,WA,4831 Fauntleroy Way SW UNIT 201,98116,RECENTLY_SOLD,509.0,False,USA,Apt 201,,328100,Seattle,,False,1.0,,USD
915000.0,False,,-122.2979,4.0,,{},False,4573.8,,47.564857,72500158,1122500.0,1122500.0,4094,,False,-1,1692342000000,False,True,https://photos.zillowstatic.com/fp/de8372f8b5a3d7275bc3a4b594c1ad2b-p_e.jpg,False,SINGLE_FAMILY,RECENTLY_SOLD,WA,2820 S Adams Street,98108,RECENTLY_SOLD,2600.0,False,USA,,sqft,1122900,Seattle,,False,3.0,,USD
589000.0,False,,-122.34911,2.0,,{},False,,,47.61752,82363244,1350000.0,1350000.0,3743,,False,-1,1692342000000,False,True,https://photos.zillowstatic.com/fp/595d859fd6a5c3ec9687384938c00ae2-p_e.jpg,False,CONDO,RECENTLY_SOLD,WA,2720 3rd Avenue UNIT 901,98121,RECENTLY_SOLD,2055.0,False,USA,Apt 901,,1446900,Seattle,,False,3.0,,USD
449000.0,False,,-122.32073,1.0,,{},False,,,47.624928,88877303,525000.0,525000.0,1356,,False,-1,1692342000000,False,True,https://photos.zillowstatic.com/fp/319f1317e6c6b848204367aefe52f493-p_e.jpg,False,CONDO,RECENTLY_SOLD,WA,530 Broadway E UNIT 610,98102,RECENTLY_SOLD,656.0,False,USA,Apt 610,,525400,Seattle,,False,1.0,,USD
210000.0,False,,-122.289795,2.0,,{},False,1680.0,,47.564793,305484218,899000.0,899000.0,3398,,False,-1,1692342000000,False,True,"https://maps.googleapis.com/maps/api/staticmap?mobile=false&sensor=true&maptype=satellite&size=575x242&zoom=17&center=47.56479263305664,-122.289794921875&key=AIzaSyBJsNQO5ZeG-XAbqqWLKwG08fWITSxg33w&signature=Q1T-Er-0pM9RYxDCkkD527L_e2U=",False,SINGLE_FAMILY,RECENTLY_SOLD,WA,4225A Letitia Ave S,98118,RECENTLY_SOLD,,False,USA,,sqft,,Seattle,,False,3.0,,USD
,False,,-122.30913,2.0,,{},False,,,47.605385,2056338410,899950.0,899950.0,3499,,False,-1,1692342000000,False,True,https://photos.zillowstatic.com/fp/9647a291f842e4cf1eba5632410e2c1b-p_e.jpg,False,CONDO,RECENTLY_SOLD,WA,329 18th Avenue,98122,RECENTLY_SOLD,1120.0,False,USA,,,900300,Seattle,,False,2.0,,USD
